[{"image":"https://lastfm.freetls.fastly.net/i/u/ar0/9fd718d4c80e4ac89107c6c0bb908440.webp","location":"Paris, le-de-France, France","name":"Daft Punk","coords":{"lat":48.856614,"lng":2.3522219}},{"image":"https://lastfm.freetls.fastly.net/i/u/ar0/cacaf8e507ab4f90cf676c4bdb618ff3.webp","location":"Braintree, Essex, England, United Kingdom","name":"The Prodigy","coords":{"lat":51.880087,"lng":0.5509269}},{"image":"https://lastfm.freetls.fastly.net/i/u/ar0/67c44fbb1eaa431f8ffdee279357490f.webp","location":"Basildon, Essex, England, United Kingdom","name":"Depeche Mode","coords":{"lat":51.57608399999999,"lng":0.488736}},{"image":"https://lastfm.freetls.fastly.net/i/u/ar0/99fd77dfe23cf89f696f45b6f30333e6.webp","location":"Bristol, England, United Kingdom","name":"Massive Attack","coords":{"lat":51.454513,"lng":-2.58791}},{"image":"https://lastfm.freetls.fastly.net/i/u/ar0/6093d29f92bb013db7437e87aa43f1dc.webp","location":"Reykjavk, Hfuborgarsvi, Iceland","name":"Bjork","coords":{"lat":64.1846369,"lng":-21.6131425}},{"image":"https://lastfm.freetls.fastly.net/i/u/ar0/f34e2cc8525641b899b6057ecf6b9c20.webp","location":"Harlem, Manhattan, New York, New York, United States","name":"Moby","coords":{"lat":40.8115504,"lng":-73.9464769}},{"image":"https://lastfm.freetls.fastly.net/i/u/ar0/3ff0a87ba080bbff8109b240477dd195.webp","location":"Abingdon-on-Thames, Oxfordshire, England, United Kingdom","name":"Radiohead","coords":{"lat":51.67078,"lng":-1.2879529}},{"image":"https://lastfm.freetls.fastly.net/i/u/ar0/5ed377de32edf19aecf582a57cbbef36.webp","location":"Manchester, Greater Manchester, England, United Kingdom","name":"The Chemical Brothers","coords":{"lat":53.4807593,"lng":-2.2426305}},{"image":"https://lastfm.freetls.fastly.net/i/u/ar0/b51126b92d06d711b9c6641fff9fef92.webp","location":"Essex, England, United Kingdom","name":"Gorillaz","coords":{"lat":51.57424469999999,"lng":0.4856781}},{"image":"https://lastfm.freetls.fastly.net/i/u/ar0/89a034a9ed8bb05c24f5c9b20bcfa7f3.webp","location":"Troms, Troms, Norway","name":"Ryksopp","coords":{"lat":69.81782419999999,"lng":18.7819365}},{"image":"https://lastfm.freetls.fastly.net/i/u/ar0/75c4fb8c899e4247c2e3a0ec72422fa8.webp","location":"Limerick, County Limerick, Munster, Ireland","name":"Aphex Twin","coords":{"lat":52.6638367,"lng":-8.6267343}},{"image":"https://lastfm.freetls.fastly.net/i/u/ar0/a367d3ef173f40ec85f87ec6d5e7580f.webp","location":"Bristol, England, United Kingdom","name":"Portishead","coords":{"lat":51.454513,"lng":-2.58791}},{"image":"https://lastfm.freetls.fastly.net/i/u/ar0/be62578c6e6245f2a8cf49f5a33d8b06.webp","location":"Middletown, Middlesex County, Connecticut, United States","name":"MGMT","coords":{"lat":41.5623209,"lng":-72.6506488}},{"image":"https://lastfm.freetls.fastly.net/i/u/ar0/d2a6c7edb5ce0f50e0b28169f16e94c8.webp","location":"Toronto, Ontario, Canada","name":"Crystal Castles","coords":{"lat":43.653226,"lng":-79.3831843}},{"image":"https://lastfm.freetls.fastly.net/i/u/ar0/a5b0881de5c249a8c96eb142a83b2291.webp","location":"Edinburgh, Scotland, United Kingdom","name":"Boards of Canada","coords":{"lat":55.953252,"lng":-3.188267}},{"image":"https://lastfm.freetls.fastly.net/i/u/ar0/11e94802f74642a489b4e95acc849bb1.webp","location":"Dsseldorf, Nordrhein-Westfalen, Germany","name":"Kraftwerk","coords":{"lat":51.2277411,"lng":6.7734556}},{"image":"https://lastfm.freetls.fastly.net/i/u/ar0/a11e258c2ecb9ae7db13839c6c9b18b8.webp","location":"Bromley, London, England, United Kingdom","name":"Fatboy Slim","coords":{"lat":51.406025,"lng":0.013156}},{"image":"https://lastfm.freetls.fastly.net/i/u/ar0/23f88e6cab864c5caff20e1fa01e2259.webp","location":"Bath, Somerset, England, United Kingdom","name":"Goldfrapp","coords":{"lat":51.3810641,"lng":-2.3590167}},{"image":"https://lastfm.freetls.fastly.net/i/u/ar0/99a15ad057a848e98521305ff2fa5a82.webp","location":"Stockholm, Stockholm municipality, Stockholms ln, Sweden","name":"The Knife","coords":{"lat":59.31706999999999,"lng":17.9672428}},{"image":"https://lastfm.freetls.fastly.net/i/u/ar0/20d9729683904ee499f6079f0de188d3.webp","location":"Cleveland, Cuyahoga County, Ohio, United States","name":"Nine Inch Nails","coords":{"lat":41.49932,"lng":-81.6943605}},{"image":"https://lastfm.freetls.fastly.net/i/u/ar0/3470ef43864b410f8ca294c1905ada94.webp","location":"Los Angeles, Los Angeles County, California, United States","name":"Red Hot Chili Peppers","coords":{"lat":34.0522265,"lng":-118.2436596}},{"image":"https://lastfm.freetls.fastly.net/i/u/ar0/398b96868ddd81accf78dfaa65e09527.webp","location":"Liverpool, Merseyside, England, United Kingdom","name":"The Beatles","coords":{"lat":53.4083714,"lng":-2.9915726}},{"image":"https://lastfm.freetls.fastly.net/i/u/ar0/30bdc0dce0dc498cb3bc05980a3d3276.webp","location":"Teignmouth, Devon, England, United Kingdom","name":"Muse","coords":{"lat":50.54703300000001,"lng":-3.496688}},{"image":"https://lastfm.freetls.fastly.net/i/u/ar0/fd3dc6d95c663dd05adfe976dc276053.webp","location":"London, England, United Kingdom","name":"Coldplay","coords":{"lat":51.5073509,"lng":-0.1277583}},{"image":"https://lastfm.freetls.fastly.net/i/u/ar0/3ff0a87ba080bbff8109b240477dd195.webp","location":"Abingdon-on-Thames, Oxfordshire, England, United Kingdom","name":"Radiohead","coords":{"lat":51.67078,"lng":-1.2879529}},{"image":"https://lastfm.freetls.fastly.net/i/u/ar0/27dcfc0e01b2745c5b0a59d8523d9710.webp","location":"Seattle, King County, Washington, United States","name":"Foo Fighters","coords":{"lat":47.6062095,"lng":-122.3320708}},{"image":"https://lastfm.freetls.fastly.net/i/u/ar0/602d46973bf92a0a05f14193aa0129a9.webp","location":"Dublin, County Dublin, Leinster, Ireland","name":"U2","coords":{"lat":53.3498053,"lng":-6.2603097}},{"image":"https://lastfm.freetls.fastly.net/i/u/ar0/0dbfcde2cb52401ca54fd7e80187cc27.webp","location":"Agoura Hills, Los Angeles County, California, United States","name":"Linkin Park","coords":{"lat":34.1533395,"lng":-118.7616764}},{"image":"https://lastfm.freetls.fastly.net/i/u/ar0/ab216abc7e274d1eaa9f73aa13e7e5c9.webp","location":"London, England, United Kingdom","name":"Led Zeppelin","coords":{"lat":51.5073509,"lng":-0.1277583}},{"image":"https://lastfm.freetls.fastly.net/i/u/ar0/de74336cde5f4066f382dc25d8e3e3db.webp","location":"London, England, United Kingdom","name":"Queen","coords":{"lat":51.5073509,"lng":-0.1277583}},{"image":"https://lastfm.freetls.fastly.net/i/u/ar0/ec607a2794aa4b21a05f76b1702e4f16.webp","location":"London, England, United Kingdom","name":"Pink Floyd","coords":{"lat":51.5073509,"lng":-0.1277583}},{"image":"https://lastfm.freetls.fastly.net/i/u/ar0/07c068d8d56c81fd727a386e483df970.webp","location":"Las Vegas, Clark County, Nevada, United States","name":"The Killers","coords":{"lat":36.1699412,"lng":-115.1398296}},{"image":"https://lastfm.freetls.fastly.net/i/u/ar0/9f67a736539bcf7d3ae6e25152c9fae0.webp","location":"Detroit, Wayne County, Michigan, United States","name":"The White Stripes","coords":{"lat":42.331427,"lng":-83.0457538}},{"image":"https://lastfm.freetls.fastly.net/i/u/ar0/dea723a5667447c7b579a7afef909e40.webp","location":"London, England, United Kingdom","name":"The Rolling Stones","coords":{"lat":51.5073509,"lng":-0.1277583}},{"image":"https://lastfm.freetls.fastly.net/i/u/ar0/d3b70e8f10224e5308913683b85b21e0.webp","location":"Berkeley, Alameda County, California, United States","name":"Green Day","coords":{"lat":37.8715226,"lng":-122.273042}},{"image":"https://lastfm.freetls.fastly.net/i/u/ar0/7d102ebcf4184bb1ae2b851efcbceb30.webp","location":"Los Angeles, Los Angeles County, California, United States","name":"Guns N' Roses","coords":{"lat":34.0522265,"lng":-118.2436596}},{"image":"https://lastfm.freetls.fastly.net/i/u/ar0/18646fb33974400ba421af23caea2be5.webp","location":"Los Angeles, Los Angeles County, California, United States","name":"The Doors","coords":{"lat":34.0522265,"lng":-118.2436596}},{"image":"https://lastfm.freetls.fastly.net/i/u/ar0/05d78b59cf1242f09fab2176c8bf07df.webp","location":"Glendale, Los Angeles County, California, United States","name":"System of a Down","coords":{"lat":34.1425078,"lng":-118.255075}},{"image":"https://lastfm.freetls.fastly.net/i/u/ar0/68a5f976043041ed28eec7978b31b373.webp","location":"Sydney, New South Wales, Australia","name":"AC/DC","coords":{"lat":-33.8688197,"lng":151.2092955}},{"image":"https://lastfm.freetls.fastly.net/i/u/ar0/eff4af321ab641338b563fbc4bf99508.webp","location":"St. Joseph, Buchanan County, Missouri, United States","name":"Eminem","coords":{"lat":39.7674578,"lng":-94.84668099999999}},{"image":"https://lastfm.freetls.fastly.net/i/u/ar0/f16677242b24bd85ef316ed7c3281c74.webp","location":"Atlanta, Fulton County, Georgia, United States","name":"Kanye West","coords":{"lat":33.7489954,"lng":-84.3879824}},{"image":"https://lastfm.freetls.fastly.net/i/u/ar0/b51126b92d06d711b9c6641fff9fef92.webp","location":"Essex, England, United Kingdom","name":"Gorillaz","coords":{"lat":51.57424469999999,"lng":0.4856781}},{"image":"https://lastfm.freetls.fastly.net/i/u/ar0/926854c69a29feccc2b40a8026e6ccf2.webp","location":"New York, New York, United States","name":"Beastie Boys","coords":{"lat":40.7127753,"lng":-74.0059728}},{"image":"https://lastfm.freetls.fastly.net/i/u/ar0/b9ecb285aa6bd500d6423b9b4a9d7e78.webp","location":"Los Angeles, Los Angeles County, California, United States","name":"Black Eyed Peas","coords":{"lat":34.0522265,"lng":-118.2436596}},{"image":"https://lastfm.freetls.fastly.net/i/u/ar0/e52dac407e6f4afc814d43efb836044d.webp","location":"East Point, Fulton County, Georgia, United States","name":"OutKast","coords":{"lat":33.6795531,"lng":-84.43937240000001}},{"image":"https://lastfm.freetls.fastly.net/i/u/ar0/794901abbf7c49b0a51e905985507592.webp","location":"Philadelphia, Philadelphia County, Pennsylvania, United States","name":"The Roots","coords":{"lat":39.9525839,"lng":-75.1652215}},{"image":"https://lastfm.freetls.fastly.net/i/u/ar0/5743442ef66d4b7baa92fd3d1c5777e9.webp","location":"South Gate, Los Angeles County, California, United States","name":"Cypress Hill","coords":{"lat":33.954737,"lng":-118.2120161}},{"image":"https://lastfm.freetls.fastly.net/i/u/ar0/8afc018dc6734428a3d84a493f26f7da.webp","location":"Brooklyn, New York, New York, United States","name":"Nas","coords":{"lat":40.6781784,"lng":-73.9441579}},{"image":"https://lastfm.freetls.fastly.net/i/u/ar0/d5fd9502e7ea46079ab13bc69633368b.webp","location":"East Harlem, Manhattan, New York, New York, United States","name":"2Pac","coords":{"lat":40.7957399,"lng":-73.93892129999999}},{"image":"https://lastfm.freetls.fastly.net/i/u/ar0/b108ea51552702e03ae2fc49a60b5fee.webp","location":"St. Albans, Queens, New York, New York, United States","name":"A Tribe Called Quest","coords":{"lat":40.6895283,"lng":-73.76436880000001}},{"image":"https://lastfm.freetls.fastly.net/i/u/ar0/61c6585a3d6242319263b4583d3f75c9.webp","location":"Long Beach, Los Angeles County, California, United States","name":"Snoop Dogg","coords":{"lat":33.7700504,"lng":-118.1937395}},{"image":"https://lastfm.freetls.fastly.net/i/u/ar0/3bc12697cfbc41bda51c3756f959efab.webp","location":"San Jose, Santa Clara County, California, United States","name":"DJ Shadow","coords":{"lat":37.3382082,"lng":-121.8863286}},{"image":"https://lastfm.freetls.fastly.net/i/u/ar0/a2f54205d4024292bc501d30954315bb.webp","location":"Compton, Los Angeles County, California, United States","name":"Dr. Dre","coords":{"lat":33.8958492,"lng":-118.2200712}},{"image":"https://lastfm.freetls.fastly.net/i/u/ar0/04b98d7ca0304deb84ff7fd7115325c7.webp","location":"Chicago, Cook County, Illinois, United States","name":"Common","coords":{"lat":41.8781136,"lng":-87.6297982}},{"image":"https://lastfm.freetls.fastly.net/i/u/ar0/4eb9093c21d882883e6c7e5838b15a23.webp","location":"Brooklyn, New York, New York, United States","name":"Mos Def","coords":{"lat":40.6781784,"lng":-73.9441579}},{"image":"https://lastfm.freetls.fastly.net/i/u/ar0/1abbe3b25eb8bba21195d1db26709b08.webp","location":"Saint Michael, Barbados","name":"Rihanna","coords":{"lat":13.1132219,"lng":-59.59880889999999}},{"image":"https://lastfm.freetls.fastly.net/i/u/ar0/c825233e09af4641a5ce7b6ece883aae.webp","location":"High Green, Sheffield, South Yorkshire, England, United Kingdom","name":"Arctic Monkeys","coords":{"lat":53.474144,"lng":-1.494032}},{"image":"https://lastfm.freetls.fastly.net/i/u/ar0/3ff0a87ba080bbff8109b240477dd195.webp","location":"Abingdon-on-Thames, Oxfordshire, England, United Kingdom","name":"Radiohead","coords":{"lat":51.67078,"lng":-1.2879529}},{"image":"https://lastfm.freetls.fastly.net/i/u/ar0/07c068d8d56c81fd727a386e483df970.webp","location":"Las Vegas, Clark County, Nevada, United States","name":"The Killers","coords":{"lat":36.1699412,"lng":-115.1398296}},{"image":"https://lastfm.freetls.fastly.net/i/u/ar0/d845a978fecb4b3f9d84037588241e6a.webp","location":"Bellingham, Whatcom County, Washington, United States","name":"Death Cab for Cutie","coords":{"lat":48.7519112,"lng":-122.4786854}},{"image":"https://lastfm.freetls.fastly.net/i/u/ar0/39ed61491137c5a43a2ffb67bbf01894.webp","location":"Glasgow, Scotland, United Kingdom","name":"Franz Ferdinand","coords":{"lat":55.864237,"lng":-4.251806}},{"image":"https://lastfm.freetls.fastly.net/i/u/ar0/fd3dc6d95c663dd05adfe976dc276053.webp","location":"London, England, United Kingdom","name":"Coldplay","coords":{"lat":51.5073509,"lng":-0.1277583}},{"image":"https://lastfm.freetls.fastly.net/i/u/ar0/697500d18da74c598bedf983f4933207.webp","location":"Reading, England, United Kingdom","name":"Bloc Party","coords":{"lat":51.4542645,"lng":-0.9781303}},{"image":"https://lastfm.freetls.fastly.net/i/u/ar0/30bdc0dce0dc498cb3bc05980a3d3276.webp","location":"Teignmouth, Devon, England, United Kingdom","name":"Muse","coords":{"lat":50.54703300000001,"lng":-3.496688}},{"image":"https://lastfm.freetls.fastly.net/i/u/ar0/304587494c2a6243c74188aecf931891.webp","location":"New York, New York, United States","name":"The Strokes","coords":{"lat":40.7127753,"lng":-74.0059728}},{"image":"https://lastfm.freetls.fastly.net/i/u/ar0/de5bdf5cbc4c46baa74622b887719507.webp","location":"Brighton, Brighton and Hove, England, United Kingdom","name":"The Kooks","coords":{"lat":50.82253000000001,"lng":-0.137163}},{"image":"https://lastfm.freetls.fastly.net/i/u/ar0/c7866680f9dc4b59820babee13db2559.webp","location":"Albuquerque, Bernalillo County, New Mexico, United States","name":"The Shins","coords":{"lat":35.0843859,"lng":-106.650422}},{"image":"https://lastfm.freetls.fastly.net/i/u/ar0/c0617e4ebdc84d8dcd3c80aa5799eed4.webp","location":"New York, New York, United States","name":"Yeah Yeah Yeahs","coords":{"lat":40.7127753,"lng":-74.0059728}},{"image":"https://lastfm.freetls.fastly.net/i/u/ar0/9f67a736539bcf7d3ae6e25152c9fae0.webp","location":"Detroit, Wayne County, Michigan, United States","name":"The White Stripes","coords":{"lat":42.331427,"lng":-83.0457538}},{"image":"https://lastfm.freetls.fastly.net/i/u/ar0/ead6dc59b17d42c5b9e35e187924c690.webp","location":"Issaquah, King County, Washington, United States","name":"Modest Mouse","coords":{"lat":47.5301011,"lng":-122.0326191}},{"image":"https://lastfm.freetls.fastly.net/i/u/ar0/0694baa5af95b430016c440553dba169.webp","location":"Nashville, Davidson County, Tennessee, United States","name":"Kings of Leon","coords":{"lat":36.1626638,"lng":-86.7816016}},{"image":"https://lastfm.freetls.fastly.net/i/u/ar0/04c140c3d9844b4dcb9c9a93e0f23448.webp","location":"Los Angeles, Los Angeles County, California, United States","name":"The Postal Service","coords":{"lat":34.0522265,"lng":-118.2436596}},{"image":"https://lastfm.freetls.fastly.net/i/u/ar0/2c7b4e08bf08486b96235bbf57cc9293.webp","location":"Omaha, Douglas County, Nebraska, United States","name":"Bright Eyes","coords":{"lat":41.2565369,"lng":-95.9345034}},{"image":"https://lastfm.freetls.fastly.net/i/u/ar0/3c572d468104a02c21844c5bf61581b1.webp","location":"Dundee, Scotland, United Kingdom","name":"Snow Patrol","coords":{"lat":56.462018,"lng":-2.970721}},{"image":"https://lastfm.freetls.fastly.net/i/u/ar0/be62578c6e6245f2a8cf49f5a33d8b06.webp","location":"Middletown, Middlesex County, Connecticut, United States","name":"MGMT","coords":{"lat":41.5623209,"lng":-72.6506488}},{"image":"https://lastfm.freetls.fastly.net/i/u/ar0/77be9d4f51949813088eba8d87db8235.webp","location":"Alton, Madison County, Illinois, United States","name":"Miles Davis","coords":{"lat":38.8906038,"lng":-90.1842764}},{"image":"https://lastfm.freetls.fastly.net/i/u/ar0/fe6b4fb54ed64405a80d430ac1259177.webp","location":"Hamlet, Richmond County, North Carolina, United States","name":"John Coltrane","coords":{"lat":34.8848775,"lng":-79.6942222}},{"image":"https://lastfm.freetls.fastly.net/i/u/ar0/d40f4e5072094383aa56c6828ea8f43a.webp","location":"BedfordStuyvesant, Brooklyn, New York, New York, United States","name":"Norah Jones","coords":{"lat":40.6872176,"lng":-73.9417735}},{"image":"https://lastfm.freetls.fastly.net/i/u/ar0/4ce48b72eafea595436782e19e36ab55.webp","location":"Southgate, Enfield, London, England, United Kingdom","name":"Amy Winehouse","coords":{"lat":51.62476119999999,"lng":-0.1240456}},{"image":"https://lastfm.freetls.fastly.net/i/u/ar0/4564e19373d64252833bd8aff73b9a2e.webp","location":"Hoboken, Hudson County, New Jersey, United States","name":"Frank Sinatra","coords":{"lat":40.7439905,"lng":-74.0323626}},{"image":"https://lastfm.freetls.fastly.net/i/u/ar0/59b2c835ffff448f87499e062303260e.webp","location":"New Orleans, Louisiana, United States","name":"Louis Armstrong","coords":{"lat":29.95106579999999,"lng":-90.0715323}},{"image":"https://lastfm.freetls.fastly.net/i/u/ar0/d00e2307c59046c7be15bb0d8e122619.webp","location":"Tryon, Polk County, North Carolina, United States","name":"Nina Simone","coords":{"lat":35.2081694,"lng":-82.2384479}},{"image":"https://lastfm.freetls.fastly.net/i/u/ar0/17d89fcb5ede04e2d2eb447e5bd80bb1.webp","location":"Newport News, Virginia, United States","name":"Ella Fitzgerald","coords":{"lat":37.0870821,"lng":-76.4730122}},{"image":"https://lastfm.freetls.fastly.net/i/u/ar0/bcb3ea5aed914dc9b5e604aeeb2fd78f.webp","location":"Philadelphia, Philadelphia County, Pennsylvania, United States","name":"Billie Holiday","coords":{"lat":39.9525839,"lng":-75.1652215}},{"image":"https://lastfm.freetls.fastly.net/i/u/ar0/f06878dcc27f4346b173e5d1612285ee.webp","location":"Chicago, Cook County, Illinois, United States","name":"Herbie Hancock","coords":{"lat":41.8781136,"lng":-87.6297982}},{"image":"https://lastfm.freetls.fastly.net/i/u/ar0/36e94b2a5333416c9ae556cec5d6f4b3.webp","location":"Rocky Mount, Edgecombe County, North Carolina, United States","name":"Thelonious Monk","coords":{"lat":35.9382103,"lng":-77.7905339}},{"image":"https://lastfm.freetls.fastly.net/i/u/ar0/6c85e46cffb04e9da74f0a9b10501e0d.webp","location":"Albany, Dougherty County, Georgia, United States","name":"Ray Charles","coords":{"lat":31.5785074,"lng":-84.15574099999999}},{"image":"https://lastfm.freetls.fastly.net/i/u/ar0/f8935acde81f5ff722deaa0fd6e28b94.webp","location":"Nogales, Santa Cruz County, Arizona, United States","name":"Charles Mingus","coords":{"lat":31.3403775,"lng":-110.9342532}},{"image":"https://lastfm.freetls.fastly.net/i/u/ar0/fc089452e95b49de9465b180791d026c.webp","location":"Nanaimo, Regional District of Nanaimo, British Columbia, Canada","name":"Diana Krall","coords":{"lat":49.165895,"lng":-123.9400717}},{"image":"https://lastfm.freetls.fastly.net/i/u/ar0/9ba4b604462a92b976b7016d662895d9.webp","location":"Washington, D.C., United States","name":"Duke Ellington","coords":{"lat":38.9071923,"lng":-77.0368707}},{"image":"https://lastfm.freetls.fastly.net/i/u/ar0/65bc438bf96449f8a53e939d0805f822.webp","location":"London, England, United Kingdom","name":"The Cinematic Orchestra","coords":{"lat":51.5073509,"lng":-0.1277583}},{"image":"https://lastfm.freetls.fastly.net/i/u/ar0/830c43bd43268081cff52d01acd02e26.webp","location":"Burnaby, Metro Vancouver, British Columbia, Canada","name":"Michael Bubl","coords":{"lat":49.2488091,"lng":-122.9805104}},{"image":"https://lastfm.freetls.fastly.net/i/u/ar0/b85772ab0b694748ae8637db3a07ada2.webp","location":"Rochford, Essex, England, United Kingdom","name":"Jamie Cullum","coords":{"lat":51.582071,"lng":0.706515}},{"image":"https://lastfm.freetls.fastly.net/i/u/ar0/15fea98e1b40c8399ffbc44abef4d400.webp","location":"Kutaisi, Imereti, Georgia","name":"Katie Melua","coords":{"lat":42.2662428,"lng":42.7180019}},{"image":"https://lastfm.freetls.fastly.net/i/u/ar0/ca90d06de8944093b8bf59516f801603.webp","location":"Montgomery, Montgomery County, Alabama, United States","name":"Nat King Cole","coords":{"lat":32.3792233,"lng":-86.3077368}},{"image":"https://lastfm.freetls.fastly.net/i/u/ar0/efeac1ff21d0ce3337a4f86982543cf4.webp","location":"Kingston, Jamaica","name":"Bob Marley & The Wailers","coords":{"lat":18.0178743,"lng":-76.8099041}},{"image":"https://lastfm.freetls.fastly.net/i/u/ar0/631c2ce313d447e18358e1a268e0b5c5.webp","location":"West Chester, Chester County, Pennsylvania, United States","name":"Matisyahu","coords":{"lat":39.9606643,"lng":-75.6054882}},{"image":"https://lastfm.freetls.fastly.net/i/u/ar0/41a4440a21184c1fbc590101df9ea758.webp","location":"Paris, le-de-France, France","name":"Manu Chao","coords":{"lat":48.856614,"lng":2.3522219}},{"image":"https://lastfm.freetls.fastly.net/i/u/ar0/b323c40a990e423e9c622a18fd7ed18a.webp","location":"Osnabrck, Niedersachsen, Germany","name":"Gentleman","coords":{"lat":52.2799112,"lng":8.0471788}},{"image":"https://lastfm.freetls.fastly.net/i/u/ar0/9fd718d4c80e4ac89107c6c0bb908440.webp","location":"Paris, le-de-France, France","name":"Daft Punk","coords":{"lat":48.856614,"lng":2.3522219}},{"image":"https://lastfm.freetls.fastly.net/i/u/ar0/cacaf8e507ab4f90cf676c4bdb618ff3.webp","location":"Braintree, Essex, England, United Kingdom","name":"The Prodigy","coords":{"lat":51.880087,"lng":0.5509269}},{"image":"https://lastfm.freetls.fastly.net/i/u/ar0/67c44fbb1eaa431f8ffdee279357490f.webp","location":"Basildon, Essex, England, United Kingdom","name":"Depeche Mode","coords":{"lat":51.57608399999999,"lng":0.488736}},{"image":"https://lastfm.freetls.fastly.net/i/u/ar0/99fd77dfe23cf89f696f45b6f30333e6.webp","location":"Bristol, England, United Kingdom","name":"Massive Attack","coords":{"lat":51.454513,"lng":-2.58791}},{"image":"https://lastfm.freetls.fastly.net/i/u/ar0/6093d29f92bb013db7437e87aa43f1dc.webp","location":"Reykjavk, Hfuborgarsvi, Iceland","name":"Bjork","coords":{"lat":64.1846369,"lng":-21.6131425}},{"image":"https://lastfm.freetls.fastly.net/i/u/ar0/f34e2cc8525641b899b6057ecf6b9c20.webp","location":"Harlem, Manhattan, New York, New York, United States","name":"Moby","coords":{"lat":40.8115504,"lng":-73.9464769}},{"image":"https://lastfm.freetls.fastly.net/i/u/ar0/3ff0a87ba080bbff8109b240477dd195.webp","location":"Abingdon-on-Thames, Oxfordshire, England, United Kingdom","name":"Radiohead","coords":{"lat":51.67078,"lng":-1.2879529}},{"image":"https://lastfm.freetls.fastly.net/i/u/ar0/5ed377de32edf19aecf582a57cbbef36.webp","location":"Manchester, Greater Manchester, England, United Kingdom","name":"The Chemical Brothers","coords":{"lat":53.4807593,"lng":-2.2426305}},{"image":"https://lastfm.freetls.fastly.net/i/u/ar0/b51126b92d06d711b9c6641fff9fef92.webp","location":"Essex, England, United Kingdom","name":"Gorillaz","coords":{"lat":51.57424469999999,"lng":0.4856781}},{"image":"https://lastfm.freetls.fastly.net/i/u/ar0/89a034a9ed8bb05c24f5c9b20bcfa7f3.webp","location":"Troms, Troms, Norway","name":"Ryksopp","coords":{"lat":69.81782419999999,"lng":18.7819365}},{"image":"https://lastfm.freetls.fastly.net/i/u/ar0/75c4fb8c899e4247c2e3a0ec72422fa8.webp","location":"Limerick, County Limerick, Munster, Ireland","name":"Aphex Twin","coords":{"lat":52.6638367,"lng":-8.6267343}},{"image":"https://lastfm.freetls.fastly.net/i/u/ar0/a367d3ef173f40ec85f87ec6d5e7580f.webp","location":"Bristol, England, United Kingdom","name":"Portishead","coords":{"lat":51.454513,"lng":-2.58791}},{"image":"https://lastfm.freetls.fastly.net/i/u/ar0/be62578c6e6245f2a8cf49f5a33d8b06.webp","location":"Middletown, Middlesex County, Connecticut, United States","name":"MGMT","coords":{"lat":41.5623209,"lng":-72.6506488}},{"image":"https://lastfm.freetls.fastly.net/i/u/ar0/d2a6c7edb5ce0f50e0b28169f16e94c8.webp","location":"Toronto, Ontario, Canada","name":"Crystal Castles","coords":{"lat":43.653226,"lng":-79.3831843}},{"image":"https://lastfm.freetls.fastly.net/i/u/ar0/a5b0881de5c249a8c96eb142a83b2291.webp","location":"Edinburgh, Scotland, United Kingdom","name":"Boards of Canada","coords":{"lat":55.953252,"lng":-3.188267}},{"image":"https://lastfm.freetls.fastly.net/i/u/ar0/11e94802f74642a489b4e95acc849bb1.webp","location":"Dsseldorf, Nordrhein-Westfalen, Germany","name":"Kraftwerk","coords":{"lat":51.2277411,"lng":6.7734556}},{"image":"https://lastfm.freetls.fastly.net/i/u/ar0/a11e258c2ecb9ae7db13839c6c9b18b8.webp","location":"Bromley, London, England, United Kingdom","name":"Fatboy Slim","coords":{"lat":51.406025,"lng":0.013156}},{"image":"https://lastfm.freetls.fastly.net/i/u/ar0/23f88e6cab864c5caff20e1fa01e2259.webp","location":"Bath, Somerset, England, United Kingdom","name":"Goldfrapp","coords":{"lat":51.3810641,"lng":-2.3590167}},{"image":"https://lastfm.freetls.fastly.net/i/u/ar0/99a15ad057a848e98521305ff2fa5a82.webp","location":"Stockholm, Stockholm municipality, Stockholms ln, Sweden","name":"The Knife","coords":{"lat":59.31706999999999,"lng":17.9672428}},{"image":"https://lastfm.freetls.fastly.net/i/u/ar0/20d9729683904ee499f6079f0de188d3.webp","location":"Cleveland, Cuyahoga County, Ohio, United States","name":"Nine Inch Nails","coords":{"lat":41.49932,"lng":-81.6943605}},{"image":"https://lastfm.freetls.fastly.net/i/u/ar0/3470ef43864b410f8ca294c1905ada94.webp","location":"Los Angeles, Los Angeles County, California, United States","name":"Red Hot Chili Peppers","coords":{"lat":34.0522265,"lng":-118.2436596}},{"image":"https://lastfm.freetls.fastly.net/i/u/ar0/398b96868ddd81accf78dfaa65e09527.webp","location":"Liverpool, Merseyside, England, United Kingdom","name":"The Beatles","coords":{"lat":53.4083714,"lng":-2.9915726}},{"image":"https://lastfm.freetls.fastly.net/i/u/ar0/30bdc0dce0dc498cb3bc05980a3d3276.webp","location":"Teignmouth, Devon, England, United Kingdom","name":"Muse","coords":{"lat":50.54703300000001,"lng":-3.496688}},{"image":"https://lastfm.freetls.fastly.net/i/u/ar0/fd3dc6d95c663dd05adfe976dc276053.webp","location":"London, England, United Kingdom","name":"Coldplay","coords":{"lat":51.5073509,"lng":-0.1277583}},{"image":"https://lastfm.freetls.fastly.net/i/u/ar0/3ff0a87ba080bbff8109b240477dd195.webp","location":"Abingdon-on-Thames, Oxfordshire, England, United Kingdom","name":"Radiohead","coords":{"lat":51.67078,"lng":-1.2879529}},{"image":"https://lastfm.freetls.fastly.net/i/u/ar0/27dcfc0e01b2745c5b0a59d8523d9710.webp","location":"Seattle, King County, Washington, United States","name":"Foo Fighters","coords":{"lat":47.6062095,"lng":-122.3320708}},{"image":"https://lastfm.freetls.fastly.net/i/u/ar0/602d46973bf92a0a05f14193aa0129a9.webp","location":"Dublin, County Dublin, Leinster, Ireland","name":"U2","coords":{"lat":53.3498053,"lng":-6.2603097}},{"image":"https://lastfm.freetls.fastly.net/i/u/ar0/0dbfcde2cb52401ca54fd7e80187cc27.webp","location":"Agoura Hills, Los Angeles County, California, United States","name":"Linkin Park","coords":{"lat":34.1533395,"lng":-118.7616764}},{"image":"https://lastfm.freetls.fastly.net/i/u/ar0/ab216abc7e274d1eaa9f73aa13e7e5c9.webp","location":"London, England, United Kingdom","name":"Led Zeppelin","coords":{"lat":51.5073509,"lng":-0.1277583}},{"image":"https://lastfm.freetls.fastly.net/i/u/ar0/de74336cde5f4066f382dc25d8e3e3db.webp","location":"London, England, United Kingdom","name":"Queen","coords":{"lat":51.5073509,"lng":-0.1277583}},{"image":"https://lastfm.freetls.fastly.net/i/u/ar0/ec607a2794aa4b21a05f76b1702e4f16.webp","location":"London, England, United Kingdom","name":"Pink Floyd","coords":{"lat":51.5073509,"lng":-0.1277583}},{"image":"https://lastfm.freetls.fastly.net/i/u/ar0/07c068d8d56c81fd727a386e483df970.webp","location":"Las Vegas, Clark County, Nevada, United States","name":"The Killers","coords":{"lat":36.1699412,"lng":-115.1398296}},{"image":"https://lastfm.freetls.fastly.net/i/u/ar0/9f67a736539bcf7d3ae6e25152c9fae0.webp","location":"Detroit, Wayne County, Michigan, United States","name":"The White Stripes","coords":{"lat":42.331427,"lng":-83.0457538}},{"image":"https://lastfm.freetls.fastly.net/i/u/ar0/dea723a5667447c7b579a7afef909e40.webp","location":"London, England, United Kingdom","name":"The Rolling Stones","coords":{"lat":51.5073509,"lng":-0.1277583}},{"image":"https://lastfm.freetls.fastly.net/i/u/ar0/d3b70e8f10224e5308913683b85b21e0.webp","location":"Berkeley, Alameda County, California, United States","name":"Green Day","coords":{"lat":37.8715226,"lng":-122.273042}},{"image":"https://lastfm.freetls.fastly.net/i/u/ar0/7d102ebcf4184bb1ae2b851efcbceb30.webp","location":"Los Angeles, Los Angeles County, California, United States","name":"Guns N' Roses","coords":{"lat":34.0522265,"lng":-118.2436596}},{"image":"https://lastfm.freetls.fastly.net/i/u/ar0/18646fb33974400ba421af23caea2be5.webp","location":"Los Angeles, Los Angeles County, California, United States","name":"The Doors","coords":{"lat":34.0522265,"lng":-118.2436596}},{"image":"https://lastfm.freetls.fastly.net/i/u/ar0/05d78b59cf1242f09fab2176c8bf07df.webp","location":"Glendale, Los Angeles County, California, United States","name":"System of a Down","coords":{"lat":34.1425078,"lng":-118.255075}},{"image":"https://lastfm.freetls.fastly.net/i/u/ar0/68a5f976043041ed28eec7978b31b373.webp","location":"Sydney, New South Wales, Australia","name":"AC/DC","coords":{"lat":-33.8688197,"lng":151.2092955}},{"image":"https://lastfm.freetls.fastly.net/i/u/ar0/eff4af321ab641338b563fbc4bf99508.webp","location":"St. Joseph, Buchanan County, Missouri, United States","name":"Eminem","coords":{"lat":39.7674578,"lng":-94.84668099999999}},{"image":"https://lastfm.freetls.fastly.net/i/u/ar0/f16677242b24bd85ef316ed7c3281c74.webp","location":"Atlanta, Fulton County, Georgia, United States","name":"Kanye West","coords":{"lat":33.7489954,"lng":-84.3879824}},{"image":"https://lastfm.freetls.fastly.net/i/u/ar0/b51126b92d06d711b9c6641fff9fef92.webp","location":"Essex, England, United Kingdom","name":"Gorillaz","coords":{"lat":51.57424469999999,"lng":0.4856781}},{"image":"https://lastfm.freetls.fastly.net/i/u/ar0/926854c69a29feccc2b40a8026e6ccf2.webp","location":"New York, New York, United States","name":"Beastie Boys","coords":{"lat":40.7127753,"lng":-74.0059728}},{"image":"https://lastfm.freetls.fastly.net/i/u/ar0/b9ecb285aa6bd500d6423b9b4a9d7e78.webp","location":"Los Angeles, Los Angeles County, California, United States","name":"Black Eyed Peas","coords":{"lat":34.0522265,"lng":-118.2436596}},{"image":"https://lastfm.freetls.fastly.net/i/u/ar0/e52dac407e6f4afc814d43efb836044d.webp","location":"East Point, Fulton County, Georgia, United States","name":"OutKast","coords":{"lat":33.6795531,"lng":-84.43937240000001}},{"image":"https://lastfm.freetls.fastly.net/i/u/ar0/794901abbf7c49b0a51e905985507592.webp","location":"Philadelphia, Philadelphia County, Pennsylvania, United States","name":"The Roots","coords":{"lat":39.9525839,"lng":-75.1652215}},{"image":"https://lastfm.freetls.fastly.net/i/u/ar0/5743442ef66d4b7baa92fd3d1c5777e9.webp","location":"South Gate, Los Angeles County, California, United States","name":"Cypress Hill","coords":{"lat":33.954737,"lng":-118.2120161}},{"image":"https://lastfm.freetls.fastly.net/i/u/ar0/8afc018dc6734428a3d84a493f26f7da.webp","location":"Brooklyn, New York, New York, United States","name":"Nas","coords":{"lat":40.6781784,"lng":-73.9441579}},{"image":"https://lastfm.freetls.fastly.net/i/u/ar0/d5fd9502e7ea46079ab13bc69633368b.webp","location":"East Harlem, Manhattan, New York, New York, United States","name":"2Pac","coords":{"lat":40.7957399,"lng":-73.93892129999999}},{"image":"https://lastfm.freetls.fastly.net/i/u/ar0/b108ea51552702e03ae2fc49a60b5fee.webp","location":"St. Albans, Queens, New York, New York, United States","name":"A Tribe Called Quest","coords":{"lat":40.6895283,"lng":-73.76436880000001}},{"image":"https://lastfm.freetls.fastly.net/i/u/ar0/61c6585a3d6242319263b4583d3f75c9.webp","location":"Long Beach, Los Angeles County, California, United States","name":"Snoop Dogg","coords":{"lat":33.7700504,"lng":-118.1937395}},{"image":"https://lastfm.freetls.fastly.net/i/u/ar0/3bc12697cfbc41bda51c3756f959efab.webp","location":"San Jose, Santa Clara County, California, United States","name":"DJ Shadow","coords":{"lat":37.3382082,"lng":-121.8863286}},{"image":"https://lastfm.freetls.fastly.net/i/u/ar0/a2f54205d4024292bc501d30954315bb.webp","location":"Compton, Los Angeles County, California, United States","name":"Dr. Dre","coords":{"lat":33.8958492,"lng":-118.2200712}},{"image":"https://lastfm.freetls.fastly.net/i/u/ar0/04b98d7ca0304deb84ff7fd7115325c7.webp","location":"Chicago, Cook County, Illinois, United States","name":"Common","coords":{"lat":41.8781136,"lng":-87.6297982}},{"image":"https://lastfm.freetls.fastly.net/i/u/ar0/4eb9093c21d882883e6c7e5838b15a23.webp","location":"Brooklyn, New York, New York, United States","name":"Mos Def","coords":{"lat":40.6781784,"lng":-73.9441579}},{"image":"https://lastfm.freetls.fastly.net/i/u/ar0/1abbe3b25eb8bba21195d1db26709b08.webp","location":"Saint Michael, Barbados","name":"Rihanna","coords":{"lat":13.1132219,"lng":-59.59880889999999}},{"image":"https://lastfm.freetls.fastly.net/i/u/ar0/c825233e09af4641a5ce7b6ece883aae.webp","location":"High Green, Sheffield, South Yorkshire, England, United Kingdom","name":"Arctic Monkeys","coords":{"lat":53.474144,"lng":-1.494032}},{"image":"https://lastfm.freetls.fastly.net/i/u/ar0/3ff0a87ba080bbff8109b240477dd195.webp","location":"Abingdon-on-Thames, Oxfordshire, England, United Kingdom","name":"Radiohead","coords":{"lat":51.67078,"lng":-1.2879529}},{"image":"https://lastfm.freetls.fastly.net/i/u/ar0/07c068d8d56c81fd727a386e483df970.webp","location":"Las Vegas, Clark County, Nevada, United States","name":"The Killers","coords":{"lat":36.1699412,"lng":-115.1398296}},{"image":"https://lastfm.freetls.fastly.net/i/u/ar0/d845a978fecb4b3f9d84037588241e6a.webp","location":"Bellingham, Whatcom County, Washington, United States","name":"Death Cab for Cutie","coords":{"lat":48.7519112,"lng":-122.4786854}},{"image":"https://lastfm.freetls.fastly.net/i/u/ar0/39ed61491137c5a43a2ffb67bbf01894.webp","location":"Glasgow, Scotland, United Kingdom","name":"Franz Ferdinand","coords":{"lat":55.864237,"lng":-4.251806}},{"image":"https://lastfm.freetls.fastly.net/i/u/ar0/fd3dc6d95c663dd05adfe976dc276053.webp","location":"London, England, United Kingdom","name":"Coldplay","coords":{"lat":51.5073509,"lng":-0.1277583}},{"image":"https://lastfm.freetls.fastly.net/i/u/ar0/697500d18da74c598bedf983f4933207.webp","location":"Reading, England, United Kingdom","name":"Bloc Party","coords":{"lat":51.4542645,"lng":-0.9781303}},{"image":"https://lastfm.freetls.fastly.net/i/u/ar0/30bdc0dce0dc498cb3bc05980a3d3276.webp","location":"Teignmouth, Devon, England, United Kingdom","name":"Muse","coords":{"lat":50.54703300000001,"lng":-3.496688}},{"image":"https://lastfm.freetls.fastly.net/i/u/ar0/304587494c2a6243c74188aecf931891.webp","location":"New York, New York, United States","name":"The Strokes","coords":{"lat":40.7127753,"lng":-74.0059728}},{"image":"https://lastfm.freetls.fastly.net/i/u/ar0/de5bdf5cbc4c46baa74622b887719507.webp","location":"Brighton, Brighton and Hove, England, United Kingdom","name":"The Kooks","coords":{"lat":50.82253000000001,"lng":-0.137163}},{"image":"https://lastfm.freetls.fastly.net/i/u/ar0/c7866680f9dc4b59820babee13db2559.webp","location":"Albuquerque, Bernalillo County, New Mexico, United States","name":"The Shins","coords":{"lat":35.0843859,"lng":-106.650422}},{"image":"https://lastfm.freetls.fastly.net/i/u/ar0/c0617e4ebdc84d8dcd3c80aa5799eed4.webp","location":"New York, New York, United States","name":"Yeah Yeah Yeahs","coords":{"lat":40.7127753,"lng":-74.0059728}},{"image":"https://lastfm.freetls.fastly.net/i/u/ar0/9f67a736539bcf7d3ae6e25152c9fae0.webp","location":"Detroit, Wayne County, Michigan, United States","name":"The White Stripes","coords":{"lat":42.331427,"lng":-83.0457538}},{"image":"https://lastfm.freetls.fastly.net/i/u/ar0/ead6dc59b17d42c5b9e35e187924c690.webp","location":"Issaquah, King County, Washington, United States","name":"Modest Mouse","coords":{"lat":47.5301011,"lng":-122.0326191}},{"image":"https://lastfm.freetls.fastly.net/i/u/ar0/0694baa5af95b430016c440553dba169.webp","location":"Nashville, Davidson County, Tennessee, United States","name":"Kings of Leon","coords":{"lat":36.1626638,"lng":-86.7816016}},{"image":"https://lastfm.freetls.fastly.net/i/u/ar0/04c140c3d9844b4dcb9c9a93e0f23448.webp","location":"Los Angeles, Los Angeles County, California, United States","name":"The Postal Service","coords":{"lat":34.0522265,"lng":-118.2436596}},{"image":"https://lastfm.freetls.fastly.net/i/u/ar0/2c7b4e08bf08486b96235bbf57cc9293.webp","location":"Omaha, Douglas County, Nebraska, United States","name":"Bright Eyes","coords":{"lat":41.2565369,"lng":-95.9345034}},{"image":"https://lastfm.freetls.fastly.net/i/u/ar0/3c572d468104a02c21844c5bf61581b1.webp","location":"Dundee, Scotland, United Kingdom","name":"Snow Patrol","coords":{"lat":56.462018,"lng":-2.970721}},{"image":"https://lastfm.freetls.fastly.net/i/u/ar0/be62578c6e6245f2a8cf49f5a33d8b06.webp","location":"Middletown, Middlesex County, Connecticut, United States","name":"MGMT","coords":{"lat":41.5623209,"lng":-72.6506488}},{"image":"https://lastfm.freetls.fastly.net/i/u/ar0/77be9d4f51949813088eba8d87db8235.webp","location":"Alton, Madison County, Illinois, United States","name":"Miles Davis","coords":{"lat":38.8906038,"lng":-90.1842764}},{"image":"https://lastfm.freetls.fastly.net/i/u/ar0/fe6b4fb54ed64405a80d430ac1259177.webp","location":"Hamlet, Richmond County, North Carolina, United States","name":"John Coltrane","coords":{"lat":34.8848775,"lng":-79.6942222}},{"image":"https://lastfm.freetls.fastly.net/i/u/ar0/d40f4e5072094383aa56c6828ea8f43a.webp","location":"BedfordStuyvesant, Brooklyn, New York, New York, United States","name":"Norah Jones","coords":{"lat":40.6872176,"lng":-73.9417735}},{"image":"https://lastfm.freetls.fastly.net/i/u/ar0/4ce48b72eafea595436782e19e36ab55.webp","location":"Southgate, Enfield, London, England, United Kingdom","name":"Amy Winehouse","coords":{"lat":51.62476119999999,"lng":-0.1240456}},{"image":"https://lastfm.freetls.fastly.net/i/u/ar0/4564e19373d64252833bd8aff73b9a2e.webp","location":"Hoboken, Hudson County, New Jersey, United States","name":"Frank Sinatra","coords":{"lat":40.7439905,"lng":-74.0323626}},{"image":"https://lastfm.freetls.fastly.net/i/u/ar0/59b2c835ffff448f87499e062303260e.webp","location":"New Orleans, Louisiana, United States","name":"Louis Armstrong","coords":{"lat":29.95106579999999,"lng":-90.0715323}},{"image":"https://lastfm.freetls.fastly.net/i/u/ar0/d00e2307c59046c7be15bb0d8e122619.webp","location":"Tryon, Polk County, North Carolina, United States","name":"Nina Simone","coords":{"lat":35.2081694,"lng":-82.2384479}},{"image":"https://lastfm.freetls.fastly.net/i/u/ar0/17d89fcb5ede04e2d2eb447e5bd80bb1.webp","location":"Newport News, Virginia, United States","name":"Ella Fitzgerald","coords":{"lat":37.0870821,"lng":-76.4730122}},{"image":"https://lastfm.freetls.fastly.net/i/u/ar0/bcb3ea5aed914dc9b5e604aeeb2fd78f.webp","location":"Philadelphia, Philadelphia County, Pennsylvania, United States","name":"Billie Holiday","coords":{"lat":39.9525839,"lng":-75.1652215}},{"image":"https://lastfm.freetls.fastly.net/i/u/ar0/f06878dcc27f4346b173e5d1612285ee.webp","location":"Chicago, Cook County, Illinois, United States","name":"Herbie Hancock","coords":{"lat":41.8781136,"lng":-87.6297982}},{"image":"https://lastfm.freetls.fastly.net/i/u/ar0/36e94b2a5333416c9ae556cec5d6f4b3.webp","location":"Rocky Mount, Edgecombe County, North Carolina, United States","name":"Thelonious Monk","coords":{"lat":35.9382103,"lng":-77.7905339}},{"image":"https://lastfm.freetls.fastly.net/i/u/ar0/6c85e46cffb04e9da74f0a9b10501e0d.webp","location":"Albany, Dougherty County, Georgia, United States","name":"Ray Charles","coords":{"lat":31.5785074,"lng":-84.15574099999999}},{"image":"https://lastfm.freetls.fastly.net/i/u/ar0/f8935acde81f5ff722deaa0fd6e28b94.webp","location":"Nogales, Santa Cruz County, Arizona, United States","name":"Charles Mingus","coords":{"lat":31.3403775,"lng":-110.9342532}},{"image":"https://lastfm.freetls.fastly.net/i/u/ar0/fc089452e95b49de9465b180791d026c.webp","location":"Nanaimo, Regional District of Nanaimo, British Columbia, Canada","name":"Diana Krall","coords":{"lat":49.165895,"lng":-123.9400717}},{"image":"https://lastfm.freetls.fastly.net/i/u/ar0/9ba4b604462a92b976b7016d662895d9.webp","location":"Washington, D.C., United States","name":"Duke Ellington","coords":{"lat":38.9071923,"lng":-77.0368707}},{"image":"https://lastfm.freetls.fastly.net/i/u/ar0/65bc438bf96449f8a53e939d0805f822.webp","location":"London, England, United Kingdom","name":"The Cinematic Orchestra","coords":{"lat":51.5073509,"lng":-0.1277583}},{"image":"https://lastfm.freetls.fastly.net/i/u/ar0/830c43bd43268081cff52d01acd02e26.webp","location":"Burnaby, Metro Vancouver, British Columbia, Canada","name":"Michael Bubl","coords":{"lat":49.2488091,"lng":-122.9805104}},{"image":"https://lastfm.freetls.fastly.net/i/u/ar0/b85772ab0b694748ae8637db3a07ada2.webp","location":"Rochford, Essex, England, United Kingdom","name":"Jamie Cullum","coords":{"lat":51.582071,"lng":0.706515}},{"image":"https://lastfm.freetls.fastly.net/i/u/ar0/15fea98e1b40c8399ffbc44abef4d400.webp","location":"Kutaisi, Imereti, Georgia","name":"Katie Melua","coords":{"lat":42.2662428,"lng":42.7180019}},{"image":"https://lastfm.freetls.fastly.net/i/u/ar0/ca90d06de8944093b8bf59516f801603.webp","location":"Montgomery, Montgomery County, Alabama, United States","name":"Nat King Cole","coords":{"lat":32.3792233,"lng":-86.3077368}},{"image":"https://lastfm.freetls.fastly.net/i/u/ar0/efeac1ff21d0ce3337a4f86982543cf4.webp","location":"Kingston, Jamaica","name":"Bob Marley & The Wailers","coords":{"lat":18.0178743,"lng":-76.8099041}},{"image":"https://lastfm.freetls.fastly.net/i/u/ar0/631c2ce313d447e18358e1a268e0b5c5.webp","location":"West Chester, Chester County, Pennsylvania, United States","name":"Matisyahu","coords":{"lat":39.9606643,"lng":-75.6054882}},{"image":"https://lastfm.freetls.fastly.net/i/u/ar0/41a4440a21184c1fbc590101df9ea758.webp","location":"Paris, le-de-France, France","name":"Manu Chao","coords":{"lat":48.856614,"lng":2.3522219}},{"image":"https://lastfm.freetls.fastly.net/i/u/ar0/b323c40a990e423e9c622a18fd7ed18a.webp","location":"Osnabrck, Niedersachsen, Germany","name":"Gentleman","coords":{"lat":52.2799112,"lng":8.0471788}},{"image":"https://lastfm.freetls.fastly.net/i/u/ar0/9fd718d4c80e4ac89107c6c0bb908440.webp","location":"Paris, le-de-France, France","name":"Daft Punk","coords":{"lat":18.0178743,"lng":-76.8099041}},{"image":"https://lastfm.freetls.fastly.net/i/u/ar0/cacaf8e507ab4f90cf676c4bdb618ff3.webp","location":"Braintree, Essex, England, United Kingdom","name":"The Prodigy","coords":{"lat":52.52000659999999,"lng":13.404954}},{"image":"https://lastfm.freetls.fastly.net/i/u/ar0/67c44fbb1eaa431f8ffdee279357490f.webp","location":"Basildon, Essex, England, United Kingdom","name":"Depeche Mode","coords":{"lat":52.48624299999999,"lng":-1.890401}},{"image":"https://lastfm.freetls.fastly.net/i/u/ar0/99fd77dfe23cf89f696f45b6f30333e6.webp","location":"Bristol, England, United Kingdom","name":"Massive Attack","coords":{"lat":38.9071923,"lng":-77.0368707}},{"image":"https://lastfm.freetls.fastly.net/i/u/ar0/6093d29f92bb013db7437e87aa43f1dc.webp","location":"Reykjavk, Hfuborgarsvi, Iceland","name":"Bjork","coords":{"lat":18.4329473,"lng":-77.19739969999999}},{"image":"https://lastfm.freetls.fastly.net/i/u/ar0/f34e2cc8525641b899b6057ecf6b9c20.webp","location":"Harlem, Manhattan, New York, New York, United States","name":"Moby","coords":{"lat":18.0178743,"lng":-76.8099041}},{"image":"https://lastfm.freetls.fastly.net/i/u/ar0/3ff0a87ba080bbff8109b240477dd195.webp","location":"Abingdon-on-Thames, Oxfordshire, England, United Kingdom","name":"Radiohead","coords":{"lat":18.448151,"lng":-77.79126}},{"image":"https://lastfm.freetls.fastly.net/i/u/ar0/5ed377de32edf19aecf582a57cbbef36.webp","location":"Manchester, Greater Manchester, England, United Kingdom","name":"The Chemical Brothers","coords":{"lat":18.0287171,"lng":-76.8437247}},{"image":"https://lastfm.freetls.fastly.net/i/u/ar0/b51126b92d06d711b9c6641fff9fef92.webp","location":"Essex, England, United Kingdom","name":"Gorillaz","coords":{"lat":18.0178743,"lng":-76.8099041}},{"image":"https://lastfm.freetls.fastly.net/i/u/ar0/89a034a9ed8bb05c24f5c9b20bcfa7f3.webp","location":"Troms, Troms, Norway","name":"Ryksopp","coords":{"lat":50.8747592,"lng":6.6883728}},{"image":"https://lastfm.freetls.fastly.net/i/u/ar0/75c4fb8c899e4247c2e3a0ec72422fa8.webp","location":"Limerick, County Limerick, Munster, Ireland","name":"Aphex Twin","coords":{"lat":18.0178743,"lng":-76.8099041}},{"image":"https://lastfm.freetls.fastly.net/i/u/ar0/a367d3ef173f40ec85f87ec6d5e7580f.webp","location":"Bristol, England, United Kingdom","name":"Portishead","coords":{"lat":53.4083714,"lng":-2.9915726}},{"image":"https://lastfm.freetls.fastly.net/i/u/ar0/be62578c6e6245f2a8cf49f5a33d8b06.webp","location":"Middletown, Middlesex County, Connecticut, United States","name":"MGMT","coords":{"lat":53.474144,"lng":-1.494032}},{"image":"https://lastfm.freetls.fastly.net/i/u/ar0/d2a6c7edb5ce0f50e0b28169f16e94c8.webp","location":"Toronto, Ontario, Canada","name":"Crystal Castles","coords":{"lat":51.5073509,"lng":-0.1277583}},{"image":"https://lastfm.freetls.fastly.net/i/u/ar0/a5b0881de5c249a8c96eb142a83b2291.webp","location":"Edinburgh, Scotland, United Kingdom","name":"Boards of Canada","coords":{"lat":50.82253000000001,"lng":-0.137163}},{"image":"https://lastfm.freetls.fastly.net/i/u/ar0/11e94802f74642a489b4e95acc849bb1.webp","location":"Dsseldorf, Nordrhein-Westfalen, Germany","name":"Kraftwerk","coords":{"lat":51.67078,"lng":-1.2879529}},{"image":"https://lastfm.freetls.fastly.net/i/u/ar0/a11e258c2ecb9ae7db13839c6c9b18b8.webp","location":"Bromley, London, England, United Kingdom","name":"Fatboy Slim","coords":{"lat":51.5073509,"lng":-0.1277583}},{"image":"https://lastfm.freetls.fastly.net/i/u/ar0/23f88e6cab864c5caff20e1fa01e2259.webp","location":"Bath, Somerset, England, United Kingdom","name":"Goldfrapp","coords":{"lat":51.5073509,"lng":-0.1277583}},{"image":"https://lastfm.freetls.fastly.net/i/u/ar0/99a15ad057a848e98521305ff2fa5a82.webp","location":"Stockholm, Stockholm municipality, Stockholms ln, Sweden","name":"The Knife","coords":{"lat":51.5073509,"lng":-0.1277583}},{"image":"https://lastfm.freetls.fastly.net/i/u/ar0/20d9729683904ee499f6079f0de188d3.webp","location":"Cleveland, Cuyahoga County, Ohio, United States","name":"Nine Inch Nails","coords":{"lat":52.6368778,"lng":-1.1397592}},{"image":"https://lastfm.freetls.fastly.net/i/u/ar0/3470ef43864b410f8ca294c1905ada94.webp","location":"Los Angeles, Los Angeles County, California, United States","name":"Red Hot Chili Peppers","coords":{"lat":51.62476119999999,"lng":-0.1240456}},{"image":"https://lastfm.freetls.fastly.net/i/u/ar0/398b96868ddd81accf78dfaa65e09527.webp","location":"Liverpool, Merseyside, England, United Kingdom","name":"The Beatles","coords":{"lat":50.54703300000001,"lng":-3.496688}},{"image":"https://lastfm.freetls.fastly.net/i/u/ar0/30bdc0dce0dc498cb3bc05980a3d3276.webp","location":"Teignmouth, Devon, England, United Kingdom","name":"Muse","coords":{"lat":51.4542645,"lng":-0.9781303}},{"image":"https://lastfm.freetls.fastly.net/i/u/ar0/fd3dc6d95c663dd05adfe976dc276053.webp","location":"London, England, United Kingdom","name":"Coldplay","coords":{"lat":51.491187,"lng":-0.223731}},{"image":"https://lastfm.freetls.fastly.net/i/u/ar0/3ff0a87ba080bbff8109b240477dd195.webp","location":"Abingdon-on-Thames, Oxfordshire, England, United Kingdom","name":"Radiohead","coords":{"lat":50.917405,"lng":0.483679}},{"image":"https://lastfm.freetls.fastly.net/i/u/ar0/27dcfc0e01b2745c5b0a59d8523d9710.webp","location":"Seattle, King County, Washington, United States","name":"Foo Fighters","coords":{"lat":51.5073509,"lng":-0.1277583}},{"image":"https://lastfm.freetls.fastly.net/i/u/ar0/602d46973bf92a0a05f14193aa0129a9.webp","location":"Dublin, County Dublin, Leinster, Ireland","name":"U2","coords":{"lat":53.4083714,"lng":-2.9915726}},{"image":"https://lastfm.freetls.fastly.net/i/u/ar0/0dbfcde2cb52401ca54fd7e80187cc27.webp","location":"Agoura Hills, Los Angeles County, California, United States","name":"Linkin Park","coords":{"lat":51.5073509,"lng":-0.1277583}},{"image":"https://lastfm.freetls.fastly.net/i/u/ar0/ab216abc7e274d1eaa9f73aa13e7e5c9.webp","location":"London, England, United Kingdom","name":"Led Zeppelin","coords":{"lat":51.5073509,"lng":-0.1277583}},{"image":"https://lastfm.freetls.fastly.net/i/u/ar0/de74336cde5f4066f382dc25d8e3e3db.webp","location":"London, England, United Kingdom","name":"Queen","coords":{"lat":37.8715226,"lng":-122.273042}},{"image":"https://lastfm.freetls.fastly.net/i/u/ar0/ec607a2794aa4b21a05f76b1702e4f16.webp","location":"London, England, United Kingdom","name":"Pink Floyd","coords":{"lat":40.7127753,"lng":-74.0059728}},{"image":"https://lastfm.freetls.fastly.net/i/u/ar0/07c068d8d56c81fd727a386e483df970.webp","location":"Las Vegas, Clark County, Nevada, United States","name":"The Killers","coords":{"lat":33.6594835,"lng":-117.9988026}},{"image":"https://lastfm.freetls.fastly.net/i/u/ar0/9f67a736539bcf7d3ae6e25152c9fae0.webp","location":"Detroit, Wayne County, Michigan, United States","name":"The White Stripes","coords":{"lat":51.5073509,"lng":-0.1277583}},{"image":"https://lastfm.freetls.fastly.net/i/u/ar0/dea723a5667447c7b579a7afef909e40.webp","location":"London, England, United Kingdom","name":"The Rolling Stones","coords":{"lat":34.0522265,"lng":-118.2436596}},{"image":"https://lastfm.freetls.fastly.net/i/u/ar0/d3b70e8f10224e5308913683b85b21e0.webp","location":"Berkeley, Alameda County, California, United States","name":"Green Day","coords":{"lat":32.9628232,"lng":-117.0358646}},{"image":"https://lastfm.freetls.fastly.net/i/u/ar0/7d102ebcf4184bb1ae2b851efcbceb30.webp","location":"Los Angeles, Los Angeles County, California, United States","name":"Guns N' Roses","coords":{"lat":34.0522265,"lng":-118.2436596}},{"image":"https://lastfm.freetls.fastly.net/i/u/ar0/18646fb33974400ba421af23caea2be5.webp","location":"Los Angeles, Los Angeles County, California, United States","name":"The Doors","coords":{"lat":37.7749295,"lng":-122.4194155}},{"image":"https://lastfm.freetls.fastly.net/i/u/ar0/05d78b59cf1242f09fab2176c8bf07df.webp","location":"Glendale, Los Angeles County, California, United States","name":"System of a Down","coords":{"lat":41.8781136,"lng":-87.6297982}},{"image":"https://lastfm.freetls.fastly.net/i/u/ar0/68a5f976043041ed28eec7978b31b373.webp","location":"Sydney, New South Wales, Australia","name":"AC/DC","coords":{"lat":40.8823215,"lng":-74.08319709999999}},{"image":"https://lastfm.freetls.fastly.net/i/u/ar0/eff4af321ab641338b563fbc4bf99508.webp","location":"St. Joseph, Buchanan County, Missouri, United States","name":"Eminem","coords":{"lat":43.8508553,"lng":-79.0203732}},{"image":"https://lastfm.freetls.fastly.net/i/u/ar0/f16677242b24bd85ef316ed7c3281c74.webp","location":"Atlanta, Fulton County, Georgia, United States","name":"Kanye West","coords":{"lat":37.886704,"lng":-122.2977557}},{"image":"https://lastfm.freetls.fastly.net/i/u/ar0/b51126b92d06d711b9c6641fff9fef92.webp","location":"Essex, England, United Kingdom","name":"Gorillaz","coords":{"lat":40.44062479999999,"lng":-79.9958864}},{"image":"https://lastfm.freetls.fastly.net/i/u/ar0/926854c69a29feccc2b40a8026e6ccf2.webp","location":"New York, New York, United States","name":"Beastie Boys","coords":{"lat":42.2528772,"lng":-71.0022705}},{"image":"https://lastfm.freetls.fastly.net/i/u/ar0/b9ecb285aa6bd500d6423b9b4a9d7e78.webp","location":"Los Angeles, Los Angeles County, California, United States","name":"Black Eyed Peas","coords":{"lat":43.2341813,"lng":-86.24839209999999}},{"image":"https://lastfm.freetls.fastly.net/i/u/ar0/e52dac407e6f4afc814d43efb836044d.webp","location":"East Point, Fulton County, Georgia, United States","name":"OutKast","coords":{"lat":40.735657,"lng":-74.1723667}},{"image":"https://lastfm.freetls.fastly.net/i/u/ar0/794901abbf7c49b0a51e905985507592.webp","location":"Philadelphia, Philadelphia County, Pennsylvania, United States","name":"The Roots","coords":{"lat":51.253775,"lng":-85.323214}},{"image":"https://lastfm.freetls.fastly.net/i/u/ar0/5743442ef66d4b7baa92fd3d1c5777e9.webp","location":"South Gate, Los Angeles County, California, United States","name":"Cypress Hill","coords":{"lat":42.0722513,"lng":-87.7228384}},{"image":"https://lastfm.freetls.fastly.net/i/u/ar0/8afc018dc6734428a3d84a493f26f7da.webp","location":"Brooklyn, New York, New York, United States","name":"Nas","coords":{"lat":34.0522265,"lng":-118.2436596}},{"image":"https://lastfm.freetls.fastly.net/i/u/ar0/d5fd9502e7ea46079ab13bc69633368b.webp","location":"East Harlem, Manhattan, New York, New York, United States","name":"2Pac","coords":{"lat":51.57608399999999,"lng":0.488736}},{"image":"https://lastfm.freetls.fastly.net/i/u/ar0/b108ea51552702e03ae2fc49a60b5fee.webp","location":"St. Albans, Queens, New York, New York, United States","name":"A Tribe Called Quest","coords":{"lat":51.1091401,"lng":-0.1872275}},{"image":"https://lastfm.freetls.fastly.net/i/u/ar0/61c6585a3d6242319263b4583d3f75c9.webp","location":"Long Beach, Los Angeles County, California, United States","name":"Snoop Dogg","coords":{"lat":51.5073509,"lng":-0.1277583}},{"image":"https://lastfm.freetls.fastly.net/i/u/ar0/3bc12697cfbc41bda51c3756f959efab.webp","location":"San Jose, Santa Clara County, California, United States","name":"DJ Shadow","coords":{"lat":53.4807593,"lng":-2.2426305}},{"image":"https://lastfm.freetls.fastly.net/i/u/ar0/a2f54205d4024292bc501d30954315bb.webp","location":"Compton, Los Angeles County, California, United States","name":"Dr. Dre","coords":{"lat":34.0522265,"lng":-118.2436596}},{"image":"https://lastfm.freetls.fastly.net/i/u/ar0/04b98d7ca0304deb84ff7fd7115325c7.webp","location":"Chicago, Cook County, Illinois, United States","name":"Common","coords":{"lat":41.6020403,"lng":-87.3371523}},{"image":"https://lastfm.freetls.fastly.net/i/u/ar0/4eb9093c21d882883e6c7e5838b15a23.webp","location":"Brooklyn, New York, New York, United States","name":"Mos Def","coords":{"lat":53.48752349999999,"lng":-2.2901264}},{"image":"https://lastfm.freetls.fastly.net/i/u/ar0/1abbe3b25eb8bba21195d1db26709b08.webp","location":"Saint Michael, Barbados","name":"Rihanna","coords":{"lat":51.4612794,"lng":-0.1156148}},{"image":"https://lastfm.freetls.fastly.net/i/u/ar0/c825233e09af4641a5ce7b6ece883aae.webp","location":"High Green, Sheffield, South Yorkshire, England, United Kingdom","name":"Arctic Monkeys","coords":{"lat":53.48752349999999,"lng":-2.2901264}},{"image":"https://lastfm.freetls.fastly.net/i/u/ar0/3ff0a87ba080bbff8109b240477dd195.webp","location":"Abingdon-on-Thames, Oxfordshire, England, United Kingdom","name":"Radiohead","coords":{"lat":52.48624299999999,"lng":-1.890401}},{"image":"https://lastfm.freetls.fastly.net/i/u/ar0/07c068d8d56c81fd727a386e483df970.webp","location":"Las Vegas, Clark County, Nevada, United States","name":"The Killers","coords":{"lat":43.5944677,"lng":-83.8888647}},{"image":"https://lastfm.freetls.fastly.net/i/u/ar0/d845a978fecb4b3f9d84037588241e6a.webp","location":"Bellingham, Whatcom County, Washington, United States","name":"Death Cab for Cutie","coords":{"lat":51.5073509,"lng":-0.1277583}},{"image":"https://lastfm.freetls.fastly.net/i/u/ar0/39ed61491137c5a43a2ffb67bbf01894.webp","location":"Glasgow, Scotland, United Kingdom","name":"Franz Ferdinand","coords":{"lat":42.3600825,"lng":-71.0588801}},{"image":"https://lastfm.freetls.fastly.net/i/u/ar0/fd3dc6d95c663dd05adfe976dc276053.webp","location":"London, England, United Kingdom","name":"Coldplay","coords":{"lat":40.45940210000001,"lng":-74.360846}},{"image":"https://lastfm.freetls.fastly.net/i/u/ar0/697500d18da74c598bedf983f4933207.webp","location":"Reading, England, United Kingdom","name":"Bloc Party","coords":{"lat":40.7127753,"lng":-74.0059728}},{"image":"https://lastfm.freetls.fastly.net/i/u/ar0/30bdc0dce0dc498cb3bc05980a3d3276.webp","location":"Teignmouth, Devon, England, United Kingdom","name":"Muse","coords":{"lat":51.4807988,"lng":-0.0231099}},{"image":"https://lastfm.freetls.fastly.net/i/u/ar0/304587494c2a6243c74188aecf931891.webp","location":"New York, New York, United States","name":"The Strokes","coords":{"lat":52.3758916,"lng":9.732010400000002}},{"image":"https://lastfm.freetls.fastly.net/i/u/ar0/de5bdf5cbc4c46baa74622b887719507.webp","location":"Brighton, Brighton and Hove, England, United Kingdom","name":"The Kooks","coords":{"lat":51.3810641,"lng":-2.3590167}},{"image":"https://lastfm.freetls.fastly.net/i/u/ar0/c7866680f9dc4b59820babee13db2559.webp","location":"Albuquerque, Bernalillo County, New Mexico, United States","name":"The Shins","coords":{"lat":51.4869429,"lng":-0.170037}},{"image":"https://lastfm.freetls.fastly.net/i/u/ar0/c0617e4ebdc84d8dcd3c80aa5799eed4.webp","location":"New York, New York, United States","name":"Yeah Yeah Yeahs","coords":{"lat":51.5073509,"lng":-0.1277583}},{"image":"https://lastfm.freetls.fastly.net/i/u/ar0/9f67a736539bcf7d3ae6e25152c9fae0.webp","location":"Detroit, Wayne County, Michigan, United States","name":"The White Stripes","coords":{"lat":48.856614,"lng":2.3522219}},{"image":"https://lastfm.freetls.fastly.net/i/u/ar0/ead6dc59b17d42c5b9e35e187924c690.webp","location":"Issaquah, King County, Washington, United States","name":"Modest Mouse","coords":{"lat":40.7830603,"lng":-73.9712488}},{"image":"https://lastfm.freetls.fastly.net/i/u/ar0/0694baa5af95b430016c440553dba169.webp","location":"Nashville, Davidson County, Tennessee, United States","name":"Kings of Leon","coords":{"lat":43.5944677,"lng":-83.8888647}},{"image":"https://lastfm.freetls.fastly.net/i/u/ar0/04c140c3d9844b4dcb9c9a93e0f23448.webp","location":"Los Angeles, Los Angeles County, California, United States","name":"The Postal Service","coords":{"lat":51.880087,"lng":0.5509269}},{"image":"https://lastfm.freetls.fastly.net/i/u/ar0/2c7b4e08bf08486b96235bbf57cc9293.webp","location":"Omaha, Douglas County, Nebraska, United States","name":"Bright Eyes","coords":{"lat":41.6020403,"lng":-87.3371523}},{"image":"https://lastfm.freetls.fastly.net/i/u/ar0/3c572d468104a02c21844c5bf61581b1.webp","location":"Dundee, Scotland, United Kingdom","name":"Snow Patrol","coords":{"lat":53.4807593,"lng":-2.2426305}},{"image":"https://lastfm.freetls.fastly.net/i/u/ar0/be62578c6e6245f2a8cf49f5a33d8b06.webp","location":"Middletown, Middlesex County, Connecticut, United States","name":"MGMT","coords":{"lat":13.1132219,"lng":-59.59880889999999}},{"image":"https://lastfm.freetls.fastly.net/i/u/ar0/77be9d4f51949813088eba8d87db8235.webp","location":"Alton, Madison County, Illinois, United States","name":"Miles Davis","coords":{"lat":48.856614,"lng":2.3522219}},{"image":"https://lastfm.freetls.fastly.net/i/u/ar0/fe6b4fb54ed64405a80d430ac1259177.webp","location":"Hamlet, Richmond County, North Carolina, United States","name":"John Coltrane","coords":{"lat":51.406025,"lng":0.013156}},{"image":"https://lastfm.freetls.fastly.net/i/u/ar0/d40f4e5072094383aa56c6828ea8f43a.webp","location":"BedfordStuyvesant, Brooklyn, New York, New York, United States","name":"Norah Jones","coords":{"lat":31.2437872,"lng":-90.4531535}},{"image":"https://lastfm.freetls.fastly.net/i/u/ar0/4ce48b72eafea595436782e19e36ab55.webp","location":"Southgate, Enfield, London, England, United Kingdom","name":"Amy Winehouse","coords":{"lat":-37.8136276,"lng":144.9630576}},{"image":"https://lastfm.freetls.fastly.net/i/u/ar0/4564e19373d64252833bd8aff73b9a2e.webp","location":"Hoboken, Hudson County, New Jersey, United States","name":"Frank Sinatra","coords":{"lat":51.5250366,"lng":-0.3413965}},{"image":"https://lastfm.freetls.fastly.net/i/u/ar0/59b2c835ffff448f87499e062303260e.webp","location":"New Orleans, Louisiana, United States","name":"Louis Armstrong","coords":{"lat":51.5073509,"lng":-0.1277583}},{"image":"https://lastfm.freetls.fastly.net/i/u/ar0/d00e2307c59046c7be15bb0d8e122619.webp","location":"Tryon, Polk County, North Carolina, United States","name":"Nina Simone","coords":{"lat":35.1495343,"lng":-90.0489801}},{"image":"https://lastfm.freetls.fastly.net/i/u/ar0/17d89fcb5ede04e2d2eb447e5bd80bb1.webp","location":"Newport News, Virginia, United States","name":"Ella Fitzgerald","coords":{"lat":51.4612794,"lng":-0.1156148}},{"image":"https://lastfm.freetls.fastly.net/i/u/ar0/bcb3ea5aed914dc9b5e604aeeb2fd78f.webp","location":"Philadelphia, Philadelphia County, Pennsylvania, United States","name":"Billie Holiday","coords":{"lat":40.5795317,"lng":-74.1502007}},{"image":"https://lastfm.freetls.fastly.net/i/u/ar0/f06878dcc27f4346b173e5d1612285ee.webp","location":"Chicago, Cook County, Illinois, United States","name":"Herbie Hancock","coords":{"lat":50.73743,"lng":7.0982068}},{"image":"https://lastfm.freetls.fastly.net/i/u/ar0/36e94b2a5333416c9ae556cec5d6f4b3.webp","location":"Rocky Mount, Edgecombe County, North Carolina, United States","name":"Thelonious Monk","coords":{"lat":51.3810641,"lng":-2.3590167}},{"image":"https://lastfm.freetls.fastly.net/i/u/ar0/6c85e46cffb04e9da74f0a9b10501e0d.webp","location":"Albany, Dougherty County, Georgia, United States","name":"Ray Charles","coords":{"lat":21.5918615,"lng":-157.9225549}},{"image":"https://lastfm.freetls.fastly.net/i/u/ar0/f8935acde81f5ff722deaa0fd6e28b94.webp","location":"Nogales, Santa Cruz County, Arizona, United States","name":"Charles Mingus","coords":{"lat":53.339897,"lng":-6.538458899999999}},{"image":"https://lastfm.freetls.fastly.net/i/u/ar0/fc089452e95b49de9465b180791d026c.webp","location":"Nanaimo, Regional District of Nanaimo, British Columbia, Canada","name":"Diana Krall","coords":{"lat":34.1659795,"lng":-81.3498211}},{"image":"https://lastfm.freetls.fastly.net/i/u/ar0/9ba4b604462a92b976b7016d662895d9.webp","location":"Washington, D.C., United States","name":"Duke Ellington","coords":{"lat":37.6087561,"lng":-77.3733139}},{"image":"https://lastfm.freetls.fastly.net/i/u/ar0/65bc438bf96449f8a53e939d0805f822.webp","location":"London, England, United Kingdom","name":"The Cinematic Orchestra","coords":{"lat":41.1792258,"lng":-73.1894384}},{"image":"https://lastfm.freetls.fastly.net/i/u/ar0/830c43bd43268081cff52d01acd02e26.webp","location":"Burnaby, Metro Vancouver, British Columbia, Canada","name":"Michael Bubl","coords":{"lat":60.39126279999999,"lng":5.3220544}},{"image":"https://lastfm.freetls.fastly.net/i/u/ar0/b85772ab0b694748ae8637db3a07ada2.webp","location":"Rochford, Essex, England, United Kingdom","name":"Jamie Cullum","coords":{"lat":41.2565369,"lng":-95.9345034}},{"image":"https://lastfm.freetls.fastly.net/i/u/ar0/15fea98e1b40c8399ffbc44abef4d400.webp","location":"Kutaisi, Imereti, Georgia","name":"Katie Melua","coords":{"lat":57.70887,"lng":11.97456}},{"image":"https://lastfm.freetls.fastly.net/i/u/ar0/ca90d06de8944093b8bf59516f801603.webp","location":"Montgomery, Montgomery County, Alabama, United States","name":"Nat King Cole","coords":{"lat":16.840939,"lng":96.173526}},{"image":"https://lastfm.freetls.fastly.net/i/u/ar0/efeac1ff21d0ce3337a4f86982543cf4.webp","location":"Kingston, Jamaica","name":"Bob Marley & The Wailers","coords":{"lat":43.1593745,"lng":-79.2468626}},{"image":"https://lastfm.freetls.fastly.net/i/u/ar0/631c2ce313d447e18358e1a268e0b5c5.webp","location":"West Chester, Chester County, Pennsylvania, United States","name":"Matisyahu","coords":{"lat":40.724707,"lng":-73.8207618}},{"image":"https://lastfm.freetls.fastly.net/i/u/ar0/41a4440a21184c1fbc590101df9ea758.webp","location":"Paris, le-de-France, France","name":"Manu Chao","coords":{"lat":44.811349,"lng":-91.4984941}},{"image":"https://lastfm.freetls.fastly.net/i/u/ar0/b323c40a990e423e9c622a18fd7ed18a.webp","location":"Osnabrck, Niedersachsen, Germany","name":"Gentleman","coords":{"lat":51.24144889999999,"lng":-1.6644823}},{"image":"https://lastfm.freetls.fastly.net/i/u/ar0/9fd718d4c80e4ac89107c6c0bb908440.webp","location":"Paris, le-de-France, France","name":"Daft Punk","coords":{"lat":48.856614,"lng":2.3522219}},{"image":"https://lastfm.freetls.fastly.net/i/u/ar0/cacaf8e507ab4f90cf676c4bdb618ff3.webp","location":"Braintree, Essex, England, United Kingdom","name":"The Prodigy","coords":{"lat":51.880087,"lng":0.5509269}},{"image":"https://lastfm.freetls.fastly.net/i/u/ar0/67c44fbb1eaa431f8ffdee279357490f.webp","location":"Basildon, Essex, England, United Kingdom","name":"Depeche Mode","coords":{"lat":51.57608399999999,"lng":0.488736}},{"image":"https://lastfm.freetls.fastly.net/i/u/ar0/99fd77dfe23cf89f696f45b6f30333e6.webp","location":"Bristol, England, United Kingdom","name":"Massive Attack","coords":{"lat":51.454513,"lng":-2.58791}},{"image":"https://lastfm.freetls.fastly.net/i/u/ar0/6093d29f92bb013db7437e87aa43f1dc.webp","location":"Reykjavk, Hfuborgarsvi, Iceland","name":"Bjork","coords":{"lat":64.1846369,"lng":-21.6131425}},{"image":"https://lastfm.freetls.fastly.net/i/u/ar0/f34e2cc8525641b899b6057ecf6b9c20.webp","location":"Harlem, Manhattan, New York, New York, United States","name":"Moby","coords":{"lat":40.8115504,"lng":-73.9464769}},{"image":"https://lastfm.freetls.fastly.net/i/u/ar0/3ff0a87ba080bbff8109b240477dd195.webp","location":"Abingdon-on-Thames, Oxfordshire, England, United Kingdom","name":"Radiohead","coords":{"lat":51.67078,"lng":-1.2879529}},{"image":"https://lastfm.freetls.fastly.net/i/u/ar0/5ed377de32edf19aecf582a57cbbef36.webp","location":"Manchester, Greater Manchester, England, United Kingdom","name":"The Chemical Brothers","coords":{"lat":53.4807593,"lng":-2.2426305}},{"image":"https://lastfm.freetls.fastly.net/i/u/ar0/b51126b92d06d711b9c6641fff9fef92.webp","location":"Essex, England, United Kingdom","name":"Gorillaz","coords":{"lat":51.57424469999999,"lng":0.4856781}},{"image":"https://lastfm.freetls.fastly.net/i/u/ar0/89a034a9ed8bb05c24f5c9b20bcfa7f3.webp","location":"Troms, Troms, Norway","name":"Ryksopp","coords":{"lat":69.81782419999999,"lng":18.7819365}},{"image":"https://lastfm.freetls.fastly.net/i/u/ar0/75c4fb8c899e4247c2e3a0ec72422fa8.webp","location":"Limerick, County Limerick, Munster, Ireland","name":"Aphex Twin","coords":{"lat":52.6638367,"lng":-8.6267343}},{"image":"https://lastfm.freetls.fastly.net/i/u/ar0/a367d3ef173f40ec85f87ec6d5e7580f.webp","location":"Bristol, England, United Kingdom","name":"Portishead","coords":{"lat":51.454513,"lng":-2.58791}},{"image":"https://lastfm.freetls.fastly.net/i/u/ar0/be62578c6e6245f2a8cf49f5a33d8b06.webp","location":"Middletown, Middlesex County, Connecticut, United States","name":"MGMT","coords":{"lat":41.5623209,"lng":-72.6506488}},{"image":"https://lastfm.freetls.fastly.net/i/u/ar0/d2a6c7edb5ce0f50e0b28169f16e94c8.webp","location":"Toronto, Ontario, Canada","name":"Crystal Castles","coords":{"lat":43.653226,"lng":-79.3831843}},{"image":"https://lastfm.freetls.fastly.net/i/u/ar0/a5b0881de5c249a8c96eb142a83b2291.webp","location":"Edinburgh, Scotland, United Kingdom","name":"Boards of Canada","coords":{"lat":55.953252,"lng":-3.188267}},{"image":"https://lastfm.freetls.fastly.net/i/u/ar0/11e94802f74642a489b4e95acc849bb1.webp","location":"Dsseldorf, Nordrhein-Westfalen, Germany","name":"Kraftwerk","coords":{"lat":51.2277411,"lng":6.7734556}},{"image":"https://lastfm.freetls.fastly.net/i/u/ar0/a11e258c2ecb9ae7db13839c6c9b18b8.webp","location":"Bromley, London, England, United Kingdom","name":"Fatboy Slim","coords":{"lat":51.406025,"lng":0.013156}},{"image":"https://lastfm.freetls.fastly.net/i/u/ar0/23f88e6cab864c5caff20e1fa01e2259.webp","location":"Bath, Somerset, England, United Kingdom","name":"Goldfrapp","coords":{"lat":51.3810641,"lng":-2.3590167}},{"image":"https://lastfm.freetls.fastly.net/i/u/ar0/99a15ad057a848e98521305ff2fa5a82.webp","location":"Stockholm, Stockholm municipality, Stockholms ln, Sweden","name":"The Knife","coords":{"lat":59.31706999999999,"lng":17.9672428}},{"image":"https://lastfm.freetls.fastly.net/i/u/ar0/20d9729683904ee499f6079f0de188d3.webp","location":"Cleveland, Cuyahoga County, Ohio, United States","name":"Nine Inch Nails","coords":{"lat":41.49932,"lng":-81.6943605}},{"image":"https://lastfm.freetls.fastly.net/i/u/ar0/3470ef43864b410f8ca294c1905ada94.webp","location":"Los Angeles, Los Angeles County, California, United States","name":"Red Hot Chili Peppers","coords":{"lat":34.0522265,"lng":-118.2436596}},{"image":"https://lastfm.freetls.fastly.net/i/u/ar0/398b96868ddd81accf78dfaa65e09527.webp","location":"Liverpool, Merseyside, England, United Kingdom","name":"The Beatles","coords":{"lat":53.4083714,"lng":-2.9915726}},{"image":"https://lastfm.freetls.fastly.net/i/u/ar0/30bdc0dce0dc498cb3bc05980a3d3276.webp","location":"Teignmouth, Devon, England, United Kingdom","name":"Muse","coords":{"lat":50.54703300000001,"lng":-3.496688}},{"image":"https://lastfm.freetls.fastly.net/i/u/ar0/fd3dc6d95c663dd05adfe976dc276053.webp","location":"London, England, United Kingdom","name":"Coldplay","coords":{"lat":51.5073509,"lng":-0.1277583}},{"image":"https://lastfm.freetls.fastly.net/i/u/ar0/3ff0a87ba080bbff8109b240477dd195.webp","location":"Abingdon-on-Thames, Oxfordshire, England, United Kingdom","name":"Radiohead","coords":{"lat":51.67078,"lng":-1.2879529}},{"image":"https://lastfm.freetls.fastly.net/i/u/ar0/27dcfc0e01b2745c5b0a59d8523d9710.webp","location":"Seattle, King County, Washington, United States","name":"Foo Fighters","coords":{"lat":47.6062095,"lng":-122.3320708}},{"image":"https://lastfm.freetls.fastly.net/i/u/ar0/602d46973bf92a0a05f14193aa0129a9.webp","location":"Dublin, County Dublin, Leinster, Ireland","name":"U2","coords":{"lat":53.3498053,"lng":-6.2603097}},{"image":"https://lastfm.freetls.fastly.net/i/u/ar0/0dbfcde2cb52401ca54fd7e80187cc27.webp","location":"Agoura Hills, Los Angeles County, California, United States","name":"Linkin Park","coords":{"lat":34.1533395,"lng":-118.7616764}},{"image":"https://lastfm.freetls.fastly.net/i/u/ar0/ab216abc7e274d1eaa9f73aa13e7e5c9.webp","location":"London, England, United Kingdom","name":"Led Zeppelin","coords":{"lat":51.5073509,"lng":-0.1277583}},{"image":"https://lastfm.freetls.fastly.net/i/u/ar0/de74336cde5f4066f382dc25d8e3e3db.webp","location":"London, England, United Kingdom","name":"Queen","coords":{"lat":51.5073509,"lng":-0.1277583}},{"image":"https://lastfm.freetls.fastly.net/i/u/ar0/ec607a2794aa4b21a05f76b1702e4f16.webp","location":"London, England, United Kingdom","name":"Pink Floyd","coords":{"lat":51.5073509,"lng":-0.1277583}},{"image":"https://lastfm.freetls.fastly.net/i/u/ar0/07c068d8d56c81fd727a386e483df970.webp","location":"Las Vegas, Clark County, Nevada, United States","name":"The Killers","coords":{"lat":36.1699412,"lng":-115.1398296}},{"image":"https://lastfm.freetls.fastly.net/i/u/ar0/9f67a736539bcf7d3ae6e25152c9fae0.webp","location":"Detroit, Wayne County, Michigan, United States","name":"The White Stripes","coords":{"lat":42.331427,"lng":-83.0457538}},{"image":"https://lastfm.freetls.fastly.net/i/u/ar0/dea723a5667447c7b579a7afef909e40.webp","location":"London, England, United Kingdom","name":"The Rolling Stones","coords":{"lat":51.5073509,"lng":-0.1277583}},{"image":"https://lastfm.freetls.fastly.net/i/u/ar0/d3b70e8f10224e5308913683b85b21e0.webp","location":"Berkeley, Alameda County, California, United States","name":"Green Day","coords":{"lat":37.8715226,"lng":-122.273042}},{"image":"https://lastfm.freetls.fastly.net/i/u/ar0/7d102ebcf4184bb1ae2b851efcbceb30.webp","location":"Los Angeles, Los Angeles County, California, United States","name":"Guns N' Roses","coords":{"lat":34.0522265,"lng":-118.2436596}},{"image":"https://lastfm.freetls.fastly.net/i/u/ar0/18646fb33974400ba421af23caea2be5.webp","location":"Los Angeles, Los Angeles County, California, United States","name":"The Doors","coords":{"lat":34.0522265,"lng":-118.2436596}},{"image":"https://lastfm.freetls.fastly.net/i/u/ar0/05d78b59cf1242f09fab2176c8bf07df.webp","location":"Glendale, Los Angeles County, California, United States","name":"System of a Down","coords":{"lat":34.1425078,"lng":-118.255075}},{"image":"https://lastfm.freetls.fastly.net/i/u/ar0/68a5f976043041ed28eec7978b31b373.webp","location":"Sydney, New South Wales, Australia","name":"AC/DC","coords":{"lat":-33.8688197,"lng":151.2092955}},{"image":"https://lastfm.freetls.fastly.net/i/u/ar0/eff4af321ab641338b563fbc4bf99508.webp","location":"St. Joseph, Buchanan County, Missouri, United States","name":"Eminem","coords":{"lat":39.7674578,"lng":-94.84668099999999}},{"image":"https://lastfm.freetls.fastly.net/i/u/ar0/f16677242b24bd85ef316ed7c3281c74.webp","location":"Atlanta, Fulton County, Georgia, United States","name":"Kanye West","coords":{"lat":33.7489954,"lng":-84.3879824}},{"image":"https://lastfm.freetls.fastly.net/i/u/ar0/b51126b92d06d711b9c6641fff9fef92.webp","location":"Essex, England, United Kingdom","name":"Gorillaz","coords":{"lat":51.57424469999999,"lng":0.4856781}},{"image":"https://lastfm.freetls.fastly.net/i/u/ar0/926854c69a29feccc2b40a8026e6ccf2.webp","location":"New York, New York, United States","name":"Beastie Boys","coords":{"lat":40.7127753,"lng":-74.0059728}},{"image":"https://lastfm.freetls.fastly.net/i/u/ar0/b9ecb285aa6bd500d6423b9b4a9d7e78.webp","location":"Los Angeles, Los Angeles County, California, United States","name":"Black Eyed Peas","coords":{"lat":34.0522265,"lng":-118.2436596}},{"image":"https://lastfm.freetls.fastly.net/i/u/ar0/e52dac407e6f4afc814d43efb836044d.webp","location":"East Point, Fulton County, Georgia, United States","name":"OutKast","coords":{"lat":33.6795531,"lng":-84.43937240000001}},{"image":"https://lastfm.freetls.fastly.net/i/u/ar0/794901abbf7c49b0a51e905985507592.webp","location":"Philadelphia, Philadelphia County, Pennsylvania, United States","name":"The Roots","coords":{"lat":39.9525839,"lng":-75.1652215}},{"image":"https://lastfm.freetls.fastly.net/i/u/ar0/5743442ef66d4b7baa92fd3d1c5777e9.webp","location":"South Gate, Los Angeles County, California, United States","name":"Cypress Hill","coords":{"lat":33.954737,"lng":-118.2120161}},{"image":"https://lastfm.freetls.fastly.net/i/u/ar0/8afc018dc6734428a3d84a493f26f7da.webp","location":"Brooklyn, New York, New York, United States","name":"Nas","coords":{"lat":40.6781784,"lng":-73.9441579}},{"image":"https://lastfm.freetls.fastly.net/i/u/ar0/d5fd9502e7ea46079ab13bc69633368b.webp","location":"East Harlem, Manhattan, New York, New York, United States","name":"2Pac","coords":{"lat":40.7957399,"lng":-73.93892129999999}},{"image":"https://lastfm.freetls.fastly.net/i/u/ar0/b108ea51552702e03ae2fc49a60b5fee.webp","location":"St. Albans, Queens, New York, New York, United States","name":"A Tribe Called Quest","coords":{"lat":40.6895283,"lng":-73.76436880000001}},{"image":"https://lastfm.freetls.fastly.net/i/u/ar0/61c6585a3d6242319263b4583d3f75c9.webp","location":"Long Beach, Los Angeles County, California, United States","name":"Snoop Dogg","coords":{"lat":33.7700504,"lng":-118.1937395}},{"image":"https://lastfm.freetls.fastly.net/i/u/ar0/3bc12697cfbc41bda51c3756f959efab.webp","location":"San Jose, Santa Clara County, California, United States","name":"DJ Shadow","coords":{"lat":37.3382082,"lng":-121.8863286}},{"image":"https://lastfm.freetls.fastly.net/i/u/ar0/a2f54205d4024292bc501d30954315bb.webp","location":"Compton, Los Angeles County, California, United States","name":"Dr. Dre","coords":{"lat":33.8958492,"lng":-118.2200712}},{"image":"https://lastfm.freetls.fastly.net/i/u/ar0/04b98d7ca0304deb84ff7fd7115325c7.webp","location":"Chicago, Cook County, Illinois, United States","name":"Common","coords":{"lat":41.8781136,"lng":-87.6297982}},{"image":"https://lastfm.freetls.fastly.net/i/u/ar0/4eb9093c21d882883e6c7e5838b15a23.webp","location":"Brooklyn, New York, New York, United States","name":"Mos Def","coords":{"lat":40.6781784,"lng":-73.9441579}},{"image":"https://lastfm.freetls.fastly.net/i/u/ar0/1abbe3b25eb8bba21195d1db26709b08.webp","location":"Saint Michael, Barbados","name":"Rihanna","coords":{"lat":13.1132219,"lng":-59.59880889999999}},{"image":"https://lastfm.freetls.fastly.net/i/u/ar0/c825233e09af4641a5ce7b6ece883aae.webp","location":"High Green, Sheffield, South Yorkshire, England, United Kingdom","name":"Arctic Monkeys","coords":{"lat":53.474144,"lng":-1.494032}},{"image":"https://lastfm.freetls.fastly.net/i/u/ar0/3ff0a87ba080bbff8109b240477dd195.webp","location":"Abingdon-on-Thames, Oxfordshire, England, United Kingdom","name":"Radiohead","coords":{"lat":51.67078,"lng":-1.2879529}},{"image":"https://lastfm.freetls.fastly.net/i/u/ar0/07c068d8d56c81fd727a386e483df970.webp","location":"Las Vegas, Clark County, Nevada, United States","name":"The Killers","coords":{"lat":36.1699412,"lng":-115.1398296}},{"image":"https://lastfm.freetls.fastly.net/i/u/ar0/d845a978fecb4b3f9d84037588241e6a.webp","location":"Bellingham, Whatcom County, Washington, United States","name":"Death Cab for Cutie","coords":{"lat":48.7519112,"lng":-122.4786854}},{"image":"https://lastfm.freetls.fastly.net/i/u/ar0/39ed61491137c5a43a2ffb67bbf01894.webp","location":"Glasgow, Scotland, United Kingdom","name":"Franz Ferdinand","coords":{"lat":55.864237,"lng":-4.251806}},{"image":"https://lastfm.freetls.fastly.net/i/u/ar0/fd3dc6d95c663dd05adfe976dc276053.webp","location":"London, England, United Kingdom","name":"Coldplay","coords":{"lat":51.5073509,"lng":-0.1277583}},{"image":"https://lastfm.freetls.fastly.net/i/u/ar0/697500d18da74c598bedf983f4933207.webp","location":"Reading, England, United Kingdom","name":"Bloc Party","coords":{"lat":51.4542645,"lng":-0.9781303}},{"image":"https://lastfm.freetls.fastly.net/i/u/ar0/30bdc0dce0dc498cb3bc05980a3d3276.webp","location":"Teignmouth, Devon, England, United Kingdom","name":"Muse","coords":{"lat":50.54703300000001,"lng":-3.496688}},{"image":"https://lastfm.freetls.fastly.net/i/u/ar0/304587494c2a6243c74188aecf931891.webp","location":"New York, New York, United States","name":"The Strokes","coords":{"lat":40.7127753,"lng":-74.0059728}},{"image":"https://lastfm.freetls.fastly.net/i/u/ar0/de5bdf5cbc4c46baa74622b887719507.webp","location":"Brighton, Brighton and Hove, England, United Kingdom","name":"The Kooks","coords":{"lat":50.82253000000001,"lng":-0.137163}},{"image":"https://lastfm.freetls.fastly.net/i/u/ar0/c7866680f9dc4b59820babee13db2559.webp","location":"Albuquerque, Bernalillo County, New Mexico, United States","name":"The Shins","coords":{"lat":35.0843859,"lng":-106.650422}},{"image":"https://lastfm.freetls.fastly.net/i/u/ar0/c0617e4ebdc84d8dcd3c80aa5799eed4.webp","location":"New York, New York, United States","name":"Yeah Yeah Yeahs","coords":{"lat":40.7127753,"lng":-74.0059728}},{"image":"https://lastfm.freetls.fastly.net/i/u/ar0/9f67a736539bcf7d3ae6e25152c9fae0.webp","location":"Detroit, Wayne County, Michigan, United States","name":"The White Stripes","coords":{"lat":42.331427,"lng":-83.0457538}},{"image":"https://lastfm.freetls.fastly.net/i/u/ar0/ead6dc59b17d42c5b9e35e187924c690.webp","location":"Issaquah, King County, Washington, United States","name":"Modest Mouse","coords":{"lat":47.5301011,"lng":-122.0326191}},{"image":"https://lastfm.freetls.fastly.net/i/u/ar0/0694baa5af95b430016c440553dba169.webp","location":"Nashville, Davidson County, Tennessee, United States","name":"Kings of Leon","coords":{"lat":36.1626638,"lng":-86.7816016}},{"image":"https://lastfm.freetls.fastly.net/i/u/ar0/04c140c3d9844b4dcb9c9a93e0f23448.webp","location":"Los Angeles, Los Angeles County, California, United States","name":"The Postal Service","coords":{"lat":34.0522265,"lng":-118.2436596}},{"image":"https://lastfm.freetls.fastly.net/i/u/ar0/2c7b4e08bf08486b96235bbf57cc9293.webp","location":"Omaha, Douglas County, Nebraska, United States","name":"Bright Eyes","coords":{"lat":41.2565369,"lng":-95.9345034}},{"image":"https://lastfm.freetls.fastly.net/i/u/ar0/3c572d468104a02c21844c5bf61581b1.webp","location":"Dundee, Scotland, United Kingdom","name":"Snow Patrol","coords":{"lat":56.462018,"lng":-2.970721}},{"image":"https://lastfm.freetls.fastly.net/i/u/ar0/be62578c6e6245f2a8cf49f5a33d8b06.webp","location":"Middletown, Middlesex County, Connecticut, United States","name":"MGMT","coords":{"lat":41.5623209,"lng":-72.6506488}},{"image":"https://lastfm.freetls.fastly.net/i/u/ar0/77be9d4f51949813088eba8d87db8235.webp","location":"Alton, Madison County, Illinois, United States","name":"Miles Davis","coords":{"lat":38.8906038,"lng":-90.1842764}},{"image":"https://lastfm.freetls.fastly.net/i/u/ar0/fe6b4fb54ed64405a80d430ac1259177.webp","location":"Hamlet, Richmond County, North Carolina, United States","name":"John Coltrane","coords":{"lat":34.8848775,"lng":-79.6942222}},{"image":"https://lastfm.freetls.fastly.net/i/u/ar0/d40f4e5072094383aa56c6828ea8f43a.webp","location":"BedfordStuyvesant, Brooklyn, New York, New York, United States","name":"Norah Jones","coords":{"lat":40.6872176,"lng":-73.9417735}},{"image":"https://lastfm.freetls.fastly.net/i/u/ar0/4ce48b72eafea595436782e19e36ab55.webp","location":"Southgate, Enfield, London, England, United Kingdom","name":"Amy Winehouse","coords":{"lat":51.62476119999999,"lng":-0.1240456}},{"image":"https://lastfm.freetls.fastly.net/i/u/ar0/4564e19373d64252833bd8aff73b9a2e.webp","location":"Hoboken, Hudson County, New Jersey, United States","name":"Frank Sinatra","coords":{"lat":40.7439905,"lng":-74.0323626}},{"image":"https://lastfm.freetls.fastly.net/i/u/ar0/59b2c835ffff448f87499e062303260e.webp","location":"New Orleans, Louisiana, United States","name":"Louis Armstrong","coords":{"lat":29.95106579999999,"lng":-90.0715323}},{"image":"https://lastfm.freetls.fastly.net/i/u/ar0/d00e2307c59046c7be15bb0d8e122619.webp","location":"Tryon, Polk County, North Carolina, United States","name":"Nina Simone","coords":{"lat":35.2081694,"lng":-82.2384479}},{"image":"https://lastfm.freetls.fastly.net/i/u/ar0/17d89fcb5ede04e2d2eb447e5bd80bb1.webp","location":"Newport News, Virginia, United States","name":"Ella Fitzgerald","coords":{"lat":37.0870821,"lng":-76.4730122}},{"image":"https://lastfm.freetls.fastly.net/i/u/ar0/bcb3ea5aed914dc9b5e604aeeb2fd78f.webp","location":"Philadelphia, Philadelphia County, Pennsylvania, United States","name":"Billie Holiday","coords":{"lat":39.9525839,"lng":-75.1652215}},{"image":"https://lastfm.freetls.fastly.net/i/u/ar0/f06878dcc27f4346b173e5d1612285ee.webp","location":"Chicago, Cook County, Illinois, United States","name":"Herbie Hancock","coords":{"lat":41.8781136,"lng":-87.6297982}},{"image":"https://lastfm.freetls.fastly.net/i/u/ar0/36e94b2a5333416c9ae556cec5d6f4b3.webp","location":"Rocky Mount, Edgecombe County, North Carolina, United States","name":"Thelonious Monk","coords":{"lat":35.9382103,"lng":-77.7905339}},{"image":"https://lastfm.freetls.fastly.net/i/u/ar0/6c85e46cffb04e9da74f0a9b10501e0d.webp","location":"Albany, Dougherty County, Georgia, United States","name":"Ray Charles","coords":{"lat":31.5785074,"lng":-84.15574099999999}},{"image":"https://lastfm.freetls.fastly.net/i/u/ar0/f8935acde81f5ff722deaa0fd6e28b94.webp","location":"Nogales, Santa Cruz County, Arizona, United States","name":"Charles Mingus","coords":{"lat":31.3403775,"lng":-110.9342532}},{"image":"https://lastfm.freetls.fastly.net/i/u/ar0/fc089452e95b49de9465b180791d026c.webp","location":"Nanaimo, Regional District of Nanaimo, British Columbia, Canada","name":"Diana Krall","coords":{"lat":49.165895,"lng":-123.9400717}},{"image":"https://lastfm.freetls.fastly.net/i/u/ar0/9ba4b604462a92b976b7016d662895d9.webp","location":"Washington, D.C., United States","name":"Duke Ellington","coords":{"lat":38.9071923,"lng":-77.0368707}},{"image":"https://lastfm.freetls.fastly.net/i/u/ar0/65bc438bf96449f8a53e939d0805f822.webp","location":"London, England, United Kingdom","name":"The Cinematic Orchestra","coords":{"lat":51.5073509,"lng":-0.1277583}},{"image":"https://lastfm.freetls.fastly.net/i/u/ar0/830c43bd43268081cff52d01acd02e26.webp","location":"Burnaby, Metro Vancouver, British Columbia, Canada","name":"Michael Bubl","coords":{"lat":49.2488091,"lng":-122.9805104}},{"image":"https://lastfm.freetls.fastly.net/i/u/ar0/b85772ab0b694748ae8637db3a07ada2.webp","location":"Rochford, Essex, England, United Kingdom","name":"Jamie Cullum","coords":{"lat":51.582071,"lng":0.706515}},{"image":"https://lastfm.freetls.fastly.net/i/u/ar0/15fea98e1b40c8399ffbc44abef4d400.webp","location":"Kutaisi, Imereti, Georgia","name":"Katie Melua","coords":{"lat":42.2662428,"lng":42.7180019}},{"image":"https://lastfm.freetls.fastly.net/i/u/ar0/ca90d06de8944093b8bf59516f801603.webp","location":"Montgomery, Montgomery County, Alabama, United States","name":"Nat King Cole","coords":{"lat":32.3792233,"lng":-86.3077368}},{"image":"https://lastfm.freetls.fastly.net/i/u/ar0/efeac1ff21d0ce3337a4f86982543cf4.webp","location":"Kingston, Jamaica","name":"Bob Marley & The Wailers","coords":{"lat":18.0178743,"lng":-76.8099041}},{"image":"https://lastfm.freetls.fastly.net/i/u/ar0/631c2ce313d447e18358e1a268e0b5c5.webp","location":"West Chester, Chester County, Pennsylvania, United States","name":"Matisyahu","coords":{"lat":39.9606643,"lng":-75.6054882}},{"image":"https://lastfm.freetls.fastly.net/i/u/ar0/41a4440a21184c1fbc590101df9ea758.webp","location":"Paris, le-de-France, France","name":"Manu Chao","coords":{"lat":48.856614,"lng":2.3522219}},{"image":"https://lastfm.freetls.fastly.net/i/u/ar0/b323c40a990e423e9c622a18fd7ed18a.webp","location":"Osnabrck, Niedersachsen, Germany","name":"Gentleman","coords":{"lat":52.2799112,"lng":8.0471788}}]